[{"refno":"AF-001","name":"Agalega Islands","dxcc_num":"4","latitude_max":"-10.75","latitude_min":"-10.00","longitude_max":"57.00","longitude_min":"56.25","grp_region":"","whitelist":"0","pc_credited":"37.2","comment":""},{"refno":"AF-002","name":"Amsterdam - St Paul Islands","dxcc_num":"10","latitude_max":"-39.00","latitude_min":"-37.75","longitude_max":"77.75","longitude_min":"77.25","grp_region":"","whitelist":"0","pc_credited":"57.4","comment":""},{"refno":"AF-003","name":"Ascension Island","dxcc_num":"205","latitude_max":"-8.00","latitude_min":"-7.75","longitude_max":"-14.50","longitude_min":"-14.25","grp_region":"","whitelist":"0","pc_credited":"77.3","comment":""},{"refno":"AF-004","name":"Canary Islands","dxcc_num":"29","latitude_max":"29.50","latitude_min":"27.50","longitude_max":"-18.25","longitude_min":"-13.25","grp_region":"","whitelist":"0","pc_credited":"89.6","comment":""},{"refno":"AF-005","name":"Leeward Islands -aka Sotavento-","dxcc_num":"409","latitude_max":"15.75","latitude_min":"14.50","longitude_max":"-26.00","longitude_min":"-22.00","grp_region":"","whitelist":"0","pc_credited":"55.5","comment":""},{"refno":"AF-006","name":"Diego Garcia Island","dxcc_num":"33","latitude_max":"-7.75","latitude_min":"-7.00","longitude_max":"72.75","longitude_min":"72.25","grp_region":"","whitelist":"0","pc_credited":"67.8","comment":""},{"refno":"AF-007","name":"Comoro Islands","dxcc_num":"411","latitude_max":"-12.50","latitude_min":"-11.25","longitude_max":"44.75","longitude_min":"43.00","grp_region":"","whitelist":"0","pc_credited":"72.0","comment":"Contacts with Mayotte made before 6 July 1975 count also for this group- contacts made on or after that date count for AF-027"},{"refno":"AF-008","name":"Crozet Islands","dxcc_num":"41","latitude_max":"-46.75","latitude_min":"-45.75","longitude_max":"52.50","longitude_min":"50.00","grp_region":"","whitelist":"0","pc_credited":"40.8","comment":""},{"refno":"AF-009","name":"Europa Island","dxcc_num":"124","latitude_max":"-22.50","latitude_min":"-22.25","longitude_max":"40.50","longitude_min":"40.25","grp_region":"","whitelist":"0","pc_credited":"31.6","comment":""},{"refno":"AF-010","name":"Bioco -aka Fernando Poo- Island","dxcc_num":"49","latitude_max":"4.00","latitude_min":"3.00","longitude_max":"9.00","longitude_min":"8.25","grp_region":"","whitelist":"0","pc_credited":"61.1","comment":""},{"refno":"AF-011","name":"Glorioso Islands","dxcc_num":"99","latitude_max":"-11.75","latitude_min":"-11.25","longitude_max":"47.50","longitude_min":"47.00","grp_region":"","whitelist":"0","pc_credited":"47.1","comment":""},{"refno":"AF-012","name":"Juan de Nova Island","dxcc_num":"124","latitude_max":"-17.17","latitude_min":"-16.83","longitude_max":"43.00","longitude_min":"42.50","grp_region":"","whitelist":"0","pc_credited":"49.3","comment":""},{"refno":"AF-013","name":"Madagascar","dxcc_num":"438","latitude_max":"-26.00","latitude_min":"-11.75","longitude_max":"51.00","longitude_min":"43.00","grp_region":"","whitelist":"0","pc_credited":"66.8","comment":"Main island and coastal islands not qualifying for other groups"},{"refno":"AF-014","name":"Madeira Archipelago","dxcc_num":"256","latitude_max":"33.25","latitude_min":"32.58","longitude_max":"-17.50","longitude_min":"-16.00","grp_region":"","whitelist":"0","pc_credited":"87.9","comment":"Not Desertas Islands AF-046"},{"refno":"AF-015","name":"Saint Brandon Islands","dxcc_num":"4","latitude_max":"-17.00","latitude_min":"-16.00","longitude_max":"60.00","longitude_min":"59.00","grp_region":"","whitelist":"0","pc_credited":"64.1","comment":"Also known as Cargados Carajos Islands"},{"refno":"AF-016","name":"Reunion Island","dxcc_num":"453","latitude_max":"-21.50","latitude_min":"-20.75","longitude_max":"56.00","longitude_min":"55.00","grp_region":"","whitelist":"0","pc_credited":"79.8","comment":""},{"refno":"AF-017","name":"Rodrigues Island","dxcc_num":"207","latitude_max":"-20.00","latitude_min":"-19.50","longitude_max":"63.58","longitude_min":"63.25","grp_region":"","whitelist":"0","pc_credited":"78.5","comment":""},{"refno":"AF-018","name":"Pantelleria Island","dxcc_num":"248","latitude_max":"36.85","latitude_min":"36.72","longitude_max":"12.08","longitude_min":"11.90","grp_region":"","whitelist":"0","pc_credited":"66.1","comment":""},{"refno":"AF-019","name":"Pelagie Islands","dxcc_num":"248","latitude_max":"35.92","latitude_min":"35.42","longitude_max":"12.92","longitude_min":"12.25","grp_region":"","whitelist":"0","pc_credited":"68.1","comment":""},{"refno":"AF-020","name":"Bijagos Archipelago","dxcc_num":"109","latitude_max":"11.67","latitude_min":"10.83","longitude_max":"-16.75","longitude_min":"-15.50","grp_region":"","whitelist":"0","pc_credited":"55.0","comment":"Also known as Bolama Region"},{"refno":"AF-021","name":"Prince Edward and Marion Islands","dxcc_num":"201","latitude_max":"-47.00","latitude_min":"-46.50","longitude_max":"38.08","longitude_min":"37.50","grp_region":"","whitelist":"0","pc_credited":"45.5","comment":""},{"refno":"AF-022","name":"St Helena Island","dxcc_num":"250","latitude_max":"-16.08","latitude_min":"-15.83","longitude_max":"-5.83","longitude_min":"-5.58","grp_region":"","whitelist":"0","pc_credited":"72.1","comment":""},{"refno":"AF-023","name":"Sao Tome Island","dxcc_num":"219","latitude_max":"-0.08","latitude_min":"0.50","longitude_max":"6.83","longitude_min":"6.42","grp_region":"","whitelist":"0","pc_credited":"72.8","comment":""},{"refno":"AF-024","name":"Inner Islands","dxcc_num":"379","latitude_max":"-6.00","latitude_min":"-3.50","longitude_max":"57.00","longitude_min":"55.00","grp_region":"","whitelist":"0","pc_credited":"72.0","comment":""},{"refno":"AF-025","name":"Aldabra Islands","dxcc_num":"379","latitude_max":"-10.00","latitude_min":"-9.25","longitude_max":"47.00","longitude_min":"46.00","grp_region":"","whitelist":"1","pc_credited":"20.3","comment":""},{"refno":"AF-026","name":"Cosmoledo Islands","dxcc_num":"379","latitude_max":"-10.25","latitude_min":"-9.50","longitude_max":"48.00","longitude_min":"47.00","grp_region":"","whitelist":"1","pc_credited":"14.8","comment":""},{"refno":"AF-027","name":"Mayotte Island","dxcc_num":"169","latitude_max":"-13.25","latitude_min":"-12.50","longitude_max":"45.50","longitude_min":"44.75","grp_region":"","whitelist":"0","pc_credited":"71.8","comment":"Only contacts made after 5 July 1975 count for this group- contacts made earlier count for AF-007"},{"refno":"AF-028","name":"Socotra -Suqutra-","dxcc_num":"492","latitude_max":"13.00","latitude_min":"12.00","longitude_max":"54.58","longitude_min":"52.00","grp_region":"","whitelist":"0","pc_credited":"50.9","comment":""},{"refno":"AF-029","name":"Tristan da Cunha Islands","dxcc_num":"274","latitude_max":"-37.58","latitude_min":"-37.00","longitude_max":"-13.00","longitude_min":"-12.00","grp_region":"","whitelist":"0","pc_credited":"59.1","comment":""},{"refno":"AF-030","name":"Gough Island","dxcc_num":"274","latitude_max":"-41.00","latitude_min":"-40.00","longitude_max":"-10.25","longitude_min":"-9.75","grp_region":"","whitelist":"0","pc_credited":"30.9","comment":""},{"refno":"AF-031","name":"Tromelin Island","dxcc_num":"276","latitude_max":"-16.00","latitude_min":"-15.67","longitude_max":"54.58","longitude_min":"54.25","grp_region":"","whitelist":"0","pc_credited":"52.4","comment":""},{"refno":"AF-032","name":"Zanzibar Island","dxcc_num":"470","latitude_max":"-7.08","latitude_min":"-5.58","longitude_max":"40.00","longitude_min":"39.08","grp_region":"","whitelist":"0","pc_credited":"62.4","comment":""},{"refno":"AF-033","name":"Amirante Islands","dxcc_num":"379","latitude_max":"-7.50","latitude_min":"-4.50","longitude_max":"55.00","longitude_min":"52.00","grp_region":"","whitelist":"0","pc_credited":"32.3","comment":""},{"refno":"AF-035","name":"Farquhar Islands","dxcc_num":"379,55","latitude_max":"-10.50","latitude_min":"-8.50","longitude_max":"52.00","longitude_min":"50.50","grp_region":"","whitelist":"1","pc_credited":"20.8","comment":""},{"refno":"AF-036","name":"Chafarinas Islands","dxcc_num":"32","latitude_max":"35.22","latitude_min":"35.13","longitude_max":"-2.50","longitude_min":"-2.33","grp_region":"","whitelist":"1","pc_credited":"27.6","comment":""},{"refno":"AF-037","name":"Northern-Western Province group","dxcc_num":"458","latitude_max":"9.05","latitude_min":"8.08","longitude_max":"-13.42","longitude_min":"-13.00","grp_region":"","whitelist":"0","pc_credited":"44.6","comment":""},{"refno":"AF-038","name":"Dahlak Archipelago","dxcc_num":"51","latitude_max":"16.92","latitude_min":"15.28","longitude_max":"41.00","longitude_min":"39.25","grp_region":"","whitelist":"1","pc_credited":"12.9","comment":"Include qualifying islands north-east of the Mits-iwa -Massawa- Channel along a line drawn from 16--25N - 039--10E- through 15--45N - 039--30E- to 15--00N - 041--00E"},{"refno":"AF-039","name":"Annobon Island","dxcc_num":"195","latitude_max":"-1.45","latitude_min":"-1.37","longitude_max":"5.65","longitude_min":"5.57","grp_region":"","whitelist":"0","pc_credited":"58.4","comment":""},{"refno":"AF-040","name":"Coast Province North group","dxcc_num":"430","latitude_max":"-3.07","latitude_min":"-1.72","longitude_max":"41.58","longitude_min":"40.13","grp_region":"","whitelist":"0","pc_credited":"42.3","comment":""},{"refno":"AF-041","name":"Egmont group","dxcc_num":"33","latitude_max":"-6.75","latitude_min":"-6.00","longitude_max":"71.75","longitude_min":"71.17","grp_region":"","whitelist":"1","pc_credited":"0.5","comment":""},{"refno":"AF-042","name":"Alboran Island","dxcc_num":"32","latitude_max":"35.97","latitude_min":"35.92","longitude_max":"-3.12","longitude_min":"-3.02","grp_region":"","whitelist":"1","pc_credited":"26.6","comment":""},{"refno":"AF-043","name":"Estuaire Province group","dxcc_num":"420","latitude_max":"-0.25","latitude_min":"1.00","longitude_max":"9.77","longitude_min":"9.17","grp_region":"","whitelist":"1","pc_credited":"16.3","comment":""},{"refno":"AF-044","name":"Principe Island","dxcc_num":"219","latitude_max":"1.83","latitude_min":"1.42","longitude_max":"7.58","longitude_min":"7.25","grp_region":"","whitelist":"0","pc_credited":"38.8","comment":""},{"refno":"AF-045","name":"Senegal North group","dxcc_num":"456","latitude_max":"16.05","latitude_min":"13.58","longitude_max":"-17.58","longitude_min":"-16.50","grp_region":"","whitelist":"0","pc_credited":"33.1","comment":""},{"refno":"AF-046","name":"Desertas Islands","dxcc_num":"256","latitude_max":"32.58","latitude_min":"32.33","longitude_max":"-16.58","longitude_min":"-16.33","grp_region":"","whitelist":"0","pc_credited":"31.7","comment":""},{"refno":"AF-047","name":"Selvagens Islands","dxcc_num":"256","latitude_max":"30.25","latitude_min":"30.00","longitude_max":"-16.17","longitude_min":"-15.75","grp_region":"","whitelist":"1","pc_credited":"28.1","comment":""},{"refno":"AF-048","name":"Kerguelen Islands","dxcc_num":"131","latitude_max":"-50.25","latitude_min":"-48.25","longitude_max":"71.00","longitude_min":"68.25","grp_region":"","whitelist":"0","pc_credited":"44.5","comment":""},{"refno":"AF-049","name":"Mauritius Island","dxcc_num":"165","latitude_max":"-20.58","latitude_min":"-19.75","longitude_max":"58.00","longitude_min":"57.25","grp_region":"","whitelist":"0","pc_credited":"80.1","comment":""},{"refno":"AF-050","name":"Dakhlet Nouadhibou - Inchiri Region group","dxcc_num":"444","latitude_max":"21.13","latitude_min":"19.07","longitude_max":"-17.25","longitude_min":"-16.22","grp_region":"","whitelist":"0","pc_credited":"34.2","comment":""},{"refno":"AF-051","name":"Guinee-Maritime Province South group","dxcc_num":"107","latitude_max":"9.87","latitude_min":"9.05","longitude_max":"-14.00","longitude_min":"-13.33","grp_region":"","whitelist":"0","pc_credited":"43.7","comment":"Conakry is on non-qualifying Tombo Island"},{"refno":"AF-052","name":"Indian Ocean Coast South group","dxcc_num":"232","latitude_max":"-1.72","latitude_min":"0.75","longitude_max":"43.58","longitude_min":"41.58","grp_region":"","whitelist":"1","pc_credited":"4.5","comment":""},{"refno":"AF-053","name":"Gulf of Tadjoura group","dxcc_num":"382","latitude_max":"12.00","latitude_min":"11.45","longitude_max":"43.25","longitude_min":"42.70","grp_region":"","whitelist":"0","pc_credited":"36.5","comment":""},{"refno":"AF-054","name":"Mafia Island","dxcc_num":"470","latitude_max":"-8.17","latitude_min":"-7.50","longitude_max":"40.00","longitude_min":"39.58","grp_region":"","whitelist":"0","pc_credited":"33.5","comment":""},{"refno":"AF-056","name":"Southern Province group","dxcc_num":"458","latitude_max":"8.25","latitude_min":"6.92","longitude_max":"-13.13","longitude_min":"-11.50","grp_region":"","whitelist":"0","pc_credited":"32.9","comment":""},{"refno":"AF-057","name":"Madagascar-s Coastal Islands West","dxcc_num":"438","latitude_max":"-26.00","latitude_min":"-11.75","longitude_max":"49.25","longitude_min":"43.00","grp_region":"","whitelist":"0","pc_credited":"59.6","comment":"Not islands on the east coast- Many island names start with -Nosy- meaning -Island- e-g- Nosy Be-"},{"refno":"AF-058","name":"Salomon group","dxcc_num":"33","latitude_max":"-6.00","latitude_min":"-5.00","longitude_max":"72.58","longitude_min":"71.58","grp_region":"","whitelist":"1","pc_credited":"2.9","comment":""},{"refno":"AF-059","name":"Strait of Mandab group","dxcc_num":"382","latitude_max":"12.72","latitude_min":"12.00","longitude_max":"43.50","longitude_min":"43.13","grp_region":"","whitelist":"1","pc_credited":"14.4","comment":""},{"refno":"AF-060","name":"The Gambia group","dxcc_num":"422","latitude_max":"13.58","latitude_min":"13.07","longitude_max":"-17.00","longitude_min":"-16.53","grp_region":"","whitelist":"1","pc_credited":"23.5","comment":""},{"refno":"AF-061","name":"Cabo Delgado District group","dxcc_num":"181","latitude_max":"-13.53","latitude_min":"-10.50","longitude_max":"40.92","longitude_min":"40.33","grp_region":"","whitelist":"0","pc_credited":"33.9","comment":""},{"refno":"AF-062","name":"Suakin Archipelago","dxcc_num":"466","latitude_max":"19.42","latitude_min":"18.25","longitude_max":"39.00","longitude_min":"37.35","grp_region":"","whitelist":"1","pc_credited":"4.0","comment":"Include qualifying islands east of a line drawn from 19--25N - 037--21E to 18--15N - 038--25E"},{"refno":"AF-063","name":"Pemba Island","dxcc_num":"470","latitude_max":"-5.58","latitude_min":"-4.75","longitude_max":"40.00","longitude_min":"39.58","grp_region":"","whitelist":"0","pc_credited":"43.3","comment":""},{"refno":"AF-064","name":"Western Cape Province South West group","dxcc_num":"462","latitude_max":"-34.92","latitude_min":"-33.00","longitude_max":"20.00","longitude_min":"17.87","grp_region":"","whitelist":"0","pc_credited":"38.3","comment":""},{"refno":"AF-065","name":"Safi - Essaouira - Agadir Region group","dxcc_num":"446","latitude_max":"32.83","latitude_min":"29.97","longitude_max":"-10.00","longitude_min":"-9.00","grp_region":"","whitelist":"1","pc_credited":"26.6","comment":""},{"refno":"AF-066","name":"Gaza - Maputo District group","dxcc_num":"181","latitude_max":"-26.83","latitude_min":"-24.83","longitude_max":"34.58","longitude_min":"32.58","grp_region":"","whitelist":"0","pc_credited":"40.2","comment":""},{"refno":"AF-067","name":"Coast Province South group","dxcc_num":"430","latitude_max":"-4.73","latitude_min":"-3.07","longitude_max":"40.18","longitude_min":"39.20","grp_region":"","whitelist":"0","pc_credited":"31.5","comment":""},{"refno":"AF-068","name":"Western Sahara South group","dxcc_num":"302,446","latitude_max":"25.00","latitude_min":"20.88","longitude_max":"-17.25","longitude_min":"-14.83","grp_region":"","whitelist":"1","pc_credited":"21.8","comment":"As sovereignty over this coastline- including Herne and Virginia- is disputed between Western Sahara and Morocco- no credit will be given for operations after 31 January 2001 unless evidence is produced that the operation was authorised by the government with de facto control - copies of the licence and permission to operate from the island are required- Credit will continue to be allowed for operations that took place before 1 February 2001- Nothing in the way that the island is listed should be taken to indicate the IOTA Committee-s view as to the legal position on sovereignty-  "},{"refno":"AF-069","name":"Alhucemas Island","dxcc_num":"32","latitude_max":"35.23","latitude_min":"35.20","longitude_max":"-3.92","longitude_min":"-3.88","grp_region":"","whitelist":"1","pc_credited":"16.1","comment":"As sovereignty over Perejil Island is disputed between Spain and Morocco- no credit will be given for operations after 31 January 2001 unless evidence is produced that the operation was authorised by the government with de facto control - copies of the licence and permission to operate from the island are required- Credit will continue to be allowed for operations that took place before 1 February 2001- Nothing in the way that the island is listed should be taken to indicate the IOTA Committee-s view as to the legal position on sovereignty-"},{"refno":"AF-070","name":"Karas Region group","dxcc_num":"464,462,488,493","latitude_max":"-28.67","latitude_min":"-24.93","longitude_max":"16.42","longitude_min":"14.72","grp_region":"","whitelist":"1","pc_credited":"21.5","comment":""},{"refno":"AF-072","name":"Inhambane District group","dxcc_num":"181","latitude_max":"-24.83","latitude_min":"-21.00","longitude_max":"35.67","longitude_min":"34.58","grp_region":"","whitelist":"0","pc_credited":"31.6","comment":""},{"refno":"AF-073","name":"Sfax Region group","dxcc_num":"474","latitude_max":"35.03","latitude_min":"34.08","longitude_max":"11.50","longitude_min":"10.00","grp_region":"","whitelist":"0","pc_credited":"50.8","comment":""},{"refno":"AF-074","name":"Lindi - Mtwara Region group","dxcc_num":"470","latitude_max":"-10.50","latitude_min":"-8.33","longitude_max":"40.58","longitude_min":"39.25","grp_region":"","whitelist":"1","pc_credited":"21.8","comment":""},{"refno":"AF-075","name":"Dar Es Salaam - Pwani Region group","dxcc_num":"470","latitude_max":"-8.33","latitude_min":"-6.00","longitude_max":"39.58","longitude_min":"38.78","grp_region":"","whitelist":"1","pc_credited":"22.9","comment":""},{"refno":"AF-076","name":"Bayelsa - Rivers - Akwa Ibom etc States group","dxcc_num":"450","latitude_max":"5.13","latitude_min":"4.25","longitude_max":"8.50","longitude_min":"5.45","grp_region":"","whitelist":"1","pc_credited":"5.0","comment":""},{"refno":"AF-077","name":"Western Cape Province South group","dxcc_num":"462","latitude_max":"-34.92","latitude_min":"-34.00","longitude_max":"23.58","longitude_min":"20.00","grp_region":"","whitelist":"1","pc_credited":"8.5","comment":""},{"refno":"AF-078","name":"Senegal South group","dxcc_num":"456","latitude_max":"13.07","latitude_min":"12.33","longitude_max":"-16.87","longitude_min":"-16.67","grp_region":"","whitelist":"1","pc_credited":"28.4","comment":""},{"refno":"AF-079","name":"Eastern Cape Province group","dxcc_num":"462","latitude_max":"-34.33","latitude_min":"-31.12","longitude_max":"30.25","longitude_min":"23.58","grp_region":"","whitelist":"1","pc_credited":"9.0","comment":""},{"refno":"AF-080","name":"Red Sea Coast North group","dxcc_num":"51","latitude_max":"18.00","latitude_min":"14.88","longitude_max":"40.67","longitude_min":"38.58","grp_region":"","whitelist":"1","pc_credited":"11.3","comment":"Not Mits-iwa- Taulud or islands qualifying for AF-038"},{"refno":"AF-081","name":"Red Sea Coast South group","dxcc_num":"51","latitude_max":"14.88","latitude_min":"12.72","longitude_max":"43.13","longitude_min":"40.67","grp_region":"","whitelist":"1","pc_credited":"10.1","comment":""},{"refno":"AF-082","name":"Rio Muni Province group","dxcc_num":"49","latitude_max":"2.33","latitude_min":"0.87","longitude_max":"9.83","longitude_min":"9.17","grp_region":"","whitelist":"1","pc_credited":"11.6","comment":""},{"refno":"AF-083","name":"Gabes - Medenine Region group","dxcc_num":"474","latitude_max":"34.08","latitude_min":"33.18","longitude_max":"11.50","longitude_min":"10.00","grp_region":"","whitelist":"0","pc_credited":"49.4","comment":""},{"refno":"AF-084","name":"Ghana group","dxcc_num":"424","latitude_max":"6.08","latitude_min":"4.67","longitude_max":"1.20","longitude_min":"-3.08","grp_region":"","whitelist":"1","pc_credited":"26.9","comment":""},{"refno":"AF-085","name":"Western Cape Province North West group ","dxcc_num":"462","latitude_max":"-33.00","latitude_min":"-31.17","longitude_max":"18.33","longitude_min":"17.78","grp_region":"","whitelist":"1","pc_credited":"13.3","comment":""},{"refno":"AF-086","name":"Windward Islands -aka Barlavento-","dxcc_num":"409","latitude_max":"17.50","latitude_min":"15.75","longitude_max":"-26.00","longitude_min":"-22.00","grp_region":"","whitelist":"0","pc_credited":"76.1","comment":""},{"refno":"AF-087","name":"Tanga Region group","dxcc_num":"470","latitude_max":"-6.00","latitude_min":"-4.68","longitude_max":"39.25","longitude_min":"38.78","grp_region":"","whitelist":"1","pc_credited":"26.2","comment":""},{"refno":"AF-088","name":"Nampula District group","dxcc_num":"181","latitude_max":"-16.83","latitude_min":"-13.53","longitude_max":"40.92","longitude_min":"39.12","grp_region":"","whitelist":"0","pc_credited":"34.0","comment":""},{"refno":"AF-089","name":"Ogooue-Maritime Province group","dxcc_num":"420","latitude_max":"-2.83","latitude_min":"-0.25","longitude_max":"10.03","longitude_min":"8.58","grp_region":"","whitelist":"1","pc_credited":"24.0","comment":""},{"refno":"AF-090","name":"Madagascar-s Coastal Islands East","dxcc_num":"438","latitude_max":"-26.00","latitude_min":"-11.75","longitude_max":"51.00","longitude_min":"45.17","grp_region":"","whitelist":"0","pc_credited":"54.2","comment":"Note- Not islands on the west coast- Many island names start with -Nosy- meaning -Island--"},{"refno":"AF-091","name":"Jendouba - Bizerte - Tunis - Nabeul Region group ","dxcc_num":"474","latitude_max":"37.67","latitude_min":"36.33","longitude_max":"11.50","longitude_min":"8.67","grp_region":"","whitelist":"1","pc_credited":"20.2","comment":""},{"refno":"AF-092","name":"Sousse - Monastir - Mahdia Region group","dxcc_num":"474","latitude_max":"36.33","latitude_min":"35.03","longitude_max":"11.50","longitude_min":"10.50","grp_region":"","whitelist":"1","pc_credited":"27.3","comment":""},{"refno":"AF-093","name":"Guinea-Bissau Coastal Region group ","dxcc_num":"109","latitude_max":"12.33","latitude_min":"10.83","longitude_max":"-16.75","longitude_min":"-15.00","grp_region":"","whitelist":"1","pc_credited":"25.6","comment":"Not islands in Bijagos Archipelago"},{"refno":"AF-094","name":"Mediterranean Sea Coast West group ","dxcc_num":"400","latitude_max":"36.58","latitude_min":"35.00","longitude_max":"1.62","longitude_min":"-2.22","grp_region":"","whitelist":"0","pc_credited":"31.1","comment":""},{"refno":"AF-095","name":"Cameroon group","dxcc_num":"406","latitude_max":"4.75","latitude_min":"2.35","longitude_max":"10.00","longitude_min":"8.50","grp_region":"","whitelist":"1","pc_credited":"9.8","comment":""},{"refno":"AF-096","name":"Guinee-Maritime Province North group ","dxcc_num":"107","latitude_max":"10.83","latitude_min":"9.87","longitude_max":"-15.08","longitude_min":"-13.75","grp_region":"","whitelist":"1","pc_credited":"25.0","comment":""},{"refno":"AF-097","name":"Mediterranean Sea Coast Centre group ","dxcc_num":"400","latitude_max":"37.00","latitude_min":"36.50","longitude_max":"5.40","longitude_min":"1.62","grp_region":"","whitelist":"1","pc_credited":"26.8","comment":""},{"refno":"AF-098","name":"Sofala District group","dxcc_num":"181","latitude_max":"-21.00","latitude_min":"-18.83","longitude_max":"36.28","longitude_min":"34.72","grp_region":"","whitelist":"1","pc_credited":"19.5","comment":"Not Buene"},{"refno":"AF-099","name":"Matruh Region group","dxcc_num":"478","latitude_max":"31.75","latitude_min":"30.83","longitude_max":"29.67","longitude_min":"25.17","grp_region":"","whitelist":"1","pc_credited":"16.5","comment":""},{"refno":"AF-100","name":"Bas-Congo Province group ","dxcc_num":"414","latitude_max":"-6.05","latitude_min":"-5.75","longitude_max":"12.60","longitude_min":"12.17","grp_region":"","whitelist":"1","pc_credited":"11.0","comment":""},{"refno":"AF-101","name":"Red Sea Coast North group","dxcc_num":"478","latitude_max":"29.95","latitude_min":"26.00","longitude_max":"35.00","longitude_min":"32.33","grp_region":"","whitelist":"1","pc_credited":"5.1","comment":""},{"refno":"AF-102","name":"Erongo - Hardap Region group","dxcc_num":"464","latitude_max":"-24.93","latitude_min":"-21.13","longitude_max":"14.83","longitude_min":"13.60","grp_region":"","whitelist":"1","pc_credited":"0.0","comment":""},{"refno":"AF-103","name":"Zambezia District group","dxcc_num":"181","latitude_max":"-18.83","latitude_min":"-16.83","longitude_max":"39.17","longitude_min":"36.28","grp_region":"","whitelist":"1","pc_credited":"18.9","comment":""},{"refno":"AF-104","name":"Mediterranean Sea Coast East group","dxcc_num":"400","latitude_max":"37.25","latitude_min":"36.50","longitude_max":"8.67","longitude_min":"5.40","grp_region":"","whitelist":"1","pc_credited":"27.8","comment":""},{"refno":"AF-105","name":"Nyanga Province group","dxcc_num":"420","latitude_max":"-3.95","latitude_min":"-2.83","longitude_max":"11.13","longitude_min":"10.03","grp_region":"","whitelist":"1","pc_credited":"0.0","comment":""},{"refno":"AF-106","name":"Cote d-Ivoire group","dxcc_num":"428","latitude_max":"5.20","latitude_min":"4.33","longitude_max":"-7.58","longitude_min":"-3.08","grp_region":"","whitelist":"1","pc_credited":"0.0","comment":""},{"refno":"AF-107","name":"Cuanza Sul - Benguela Province group","dxcc_num":"401","latitude_max":"-13.58","latitude_min":"-10.25","longitude_max":"13.83","longitude_min":"12.50","grp_region":"","whitelist":"1","pc_credited":"0.0","comment":""},{"refno":"AF-108","name":"Namibe Province group","dxcc_num":"401","latitude_max":"-17.25","latitude_min":"-13.58","longitude_max":"12.50","longitude_min":"11.50","grp_region":"","whitelist":"1","pc_credited":"0.0","comment":""},{"refno":"AF-109","name":"Nile Delta and Sinai Region group","dxcc_num":"478","latitude_max":"31.75","latitude_min":"31.00","longitude_max":"34.25","longitude_min":"29.67","grp_region":"","whitelist":"1","pc_credited":"16.3","comment":""},{"refno":"AF-110","name":"Red Sea Coast South group","dxcc_num":"478","latitude_max":"26.00","latitude_min":"23.13","longitude_max":"36.33","longitude_min":"34.33","grp_region":"","whitelist":"1","pc_credited":"0.0","comment":""},{"refno":"AF-111","name":"Liberia group","dxcc_num":"434","latitude_max":"6.92","latitude_min":"4.33","longitude_max":"-11.50","longitude_min":"-7.58","grp_region":"","whitelist":"1","pc_credited":"18.8","comment":""},{"refno":"AF-112","name":"Mediterranean Sea Coast Centre group","dxcc_num":"436","latitude_max":"32.83","latitude_min":"30.28","longitude_max":"21.42","longitude_min":"16.12","grp_region":"","whitelist":"1","pc_credited":"0.0","comment":""},{"refno":"AF-113","name":"Mediterranean Sea Coast East group","dxcc_num":"436","latitude_max":"33.00","latitude_min":"31.63","longitude_max":"25.17","longitude_min":"21.42","grp_region":"","whitelist":"1","pc_credited":"0.0","comment":""},{"refno":"AF-114","name":"Halaib Triangle group","dxcc_num":"466","latitude_max":"23.13","latitude_min":"22.00","longitude_max":"36.92","longitude_min":"35.67","grp_region":"","whitelist":"1","pc_credited":"0.0","comment":"Egypt-Sudan Border Zone"},{"refno":"AF-115","name":"Red Sea State group","dxcc_num":"466","latitude_max":"22.00","latitude_min":"18.00","longitude_max":"38.58","longitude_min":"36.88","grp_region":"","whitelist":"1","pc_credited":"0.0","comment":"Not islands qualifying for AF-062"},{"refno":"AF-116","name":"Gulf of Aden West group","dxcc_num":"232","latitude_max":"11.52","latitude_min":"10.42","longitude_max":"46.00","longitude_min":"43.25","grp_region":"","whitelist":"1","pc_credited":"0.0","comment":""},{"refno":"AF-117","name":"Gulf of Aden East group","dxcc_num":"232","latitude_max":"12.00","latitude_min":"10.70","longitude_max":"51.33","longitude_min":"46.00","grp_region":"","whitelist":"1","pc_credited":"0.0","comment":""},{"refno":"AF-118","name":"Mediterranean Sea Coast group","dxcc_num":"446","latitude_max":"35.93","latitude_min":"34.98","longitude_max":"-6.25","longitude_min":"-2.22","grp_region":"","whitelist":"1","pc_credited":"0.0","comment":""},{"refno":"AF-119","name":"Coetivy Island","dxcc_num":"379","latitude_max":"-7.30","latitude_min":"-6.97","longitude_max":"56.42","longitude_min":"56.13","grp_region":"","whitelist":"1","pc_credited":"29.8","comment":""},{"refno":"AN-001","name":"Graham Land West -Adelaide Island- group ","dxcc_num":"13","latitude_max":"-68.50","latitude_min":"-66.58","longitude_max":"-70.00","longitude_min":"-66.00","grp_region":"","whitelist":"1","pc_credited":"26.1","comment":""},{"refno":"AN-002","name":"Bouvet Island","dxcc_num":"24","latitude_max":"-54.50","latitude_min":"-54.33","longitude_max":"3.47","longitude_min":"3.28","grp_region":"","whitelist":"0","pc_credited":"35.0","comment":""},{"refno":"AN-003","name":"Heard Island","dxcc_num":"111","latitude_max":"-53.50","latitude_min":"-52.75","longitude_max":"73.92","longitude_min":"72.50","grp_region":"","whitelist":"0","pc_credited":"51.9","comment":""},{"refno":"AN-004","name":"Peter 1 Island","dxcc_num":"199","latitude_max":"-69.00","latitude_min":"-68.67","longitude_max":"-91.00","longitude_min":"-90.33","grp_region":"","whitelist":"0","pc_credited":"42.5","comment":""},{"refno":"AN-005","name":"Macquarie Island","dxcc_num":"153","latitude_max":"-55.25","latitude_min":"-54.00","longitude_max":"159.25","longitude_min":"158.50","grp_region":"","whitelist":"0","pc_credited":"44.1","comment":""},{"refno":"AN-006","name":"Graham Land West -Biscoe Islands- group ","dxcc_num":"13","latitude_max":"-66.58","latitude_min":"-65.00","longitude_max":"-67.50","longitude_min":"-63.50","grp_region":"","whitelist":"0","pc_credited":"48.8","comment":""},{"refno":"AN-007","name":"South Georgia Island","dxcc_num":"235","latitude_max":"-55.25","latitude_min":"-53.83","longitude_max":"-39.00","longitude_min":"-34.25","grp_region":"","whitelist":"0","pc_credited":"51.4","comment":""},{"refno":"AN-008","name":"South Orkney Islands","dxcc_num":"238","latitude_max":"-61.00","latitude_min":"-60.25","longitude_max":"-47.50","longitude_min":"-44.00","grp_region":"","whitelist":"0","pc_credited":"52.8","comment":""},{"refno":"AN-009","name":"South Sandwich Islands","dxcc_num":"240","latitude_max":"-60.00","latitude_min":"-56.00","longitude_max":"-28.00","longitude_min":"-26.00","grp_region":"","whitelist":"0","pc_credited":"47.5","comment":""},{"refno":"AN-010","name":"South Shetland Islands","dxcc_num":"241","latitude_max":"-63.50","latitude_min":"-60.75","longitude_max":"-63.00","longitude_min":"-53.75","grp_region":"","whitelist":"0","pc_credited":"70.1","comment":"Not islands east or south of the Bransfield Strait"},{"refno":"AN-011","name":"Ross Island group","dxcc_num":"13","latitude_max":"-78.00","latitude_min":"-76.00","longitude_max":"170.00","longitude_min":"165.00","grp_region":"","whitelist":"1","pc_credited":"21.5","comment":"Not Williams Field -aerodrome of McMurdo Base on Ross Ice Shelf - KC4-"},{"refno":"AN-012","name":"Graham Land West -Palmer Archipelago- group ","dxcc_num":"13","latitude_max":"-65.00","latitude_min":"-63.50","longitude_max":"-65.00","longitude_min":"-59.00","grp_region":"","whitelist":"1","pc_credited":"15.3","comment":""},{"refno":"AN-013","name":"Trinity Peninsula group","dxcc_num":"13","latitude_max":"-64.50","latitude_min":"-62.50","longitude_max":"-59.00","longitude_min":"-53.75","grp_region":"","whitelist":"1","pc_credited":"13.2","comment":""},{"refno":"AN-015","name":"Queen Maud Land -Prince Harald etc- group ","dxcc_num":"13","latitude_max":"-70.00","latitude_min":"-67.50","longitude_max":"45.00","longitude_min":"35.00","grp_region":"","whitelist":"0","pc_credited":"51.4","comment":""},{"refno":"AN-016","name":"Antarctica","dxcc_num":"13","latitude_max":"-90.00","latitude_min":"-63.00","longitude_max":"180.00","longitude_min":"-180.00","grp_region":"","whitelist":"0","pc_credited":"78.7","comment":""},{"refno":"AN-017","name":"Adelie Land group","dxcc_num":"13","latitude_max":"-67.00","latitude_min":"-66.00","longitude_max":"142.00","longitude_min":"136.00","grp_region":"","whitelist":"1","pc_credited":"19.7","comment":""},{"refno":"AN-018","name":"Palmer Land West -Alexander Island- group","dxcc_num":"13","latitude_max":"-73.00","latitude_min":"-68.50","longitude_max":"-77.00","longitude_min":"-67.75","grp_region":"","whitelist":"1","pc_credited":"5.5","comment":""},{"refno":"AN-019","name":"Balleny Islands","dxcc_num":"13","latitude_max":"-68.00","latitude_min":"-66.25","longitude_max":"165.08","longitude_min":"162.25","grp_region":"","whitelist":"1","pc_credited":"0.0","comment":""},{"refno":"AN-020","name":"Scott Island","dxcc_num":"13","latitude_max":"-67.67","latitude_min":"-67.25","longitude_max":"179.92","longitude_min":"-179.92","grp_region":"","whitelist":"1","pc_credited":"0.0","comment":""},{"refno":"AN-021","name":"Shag Rocks","dxcc_num":"235","latitude_max":"-54.00","latitude_min":"-53.00","longitude_max":"-42.50","longitude_min":"-41.00","grp_region":"","whitelist":"1","pc_credited":"0.0","comment":""},{"refno":"AS-001","name":"Andaman Islands","dxcc_num":"11","latitude_max":"13.83","latitude_min":"10.33","longitude_max":"94.33","longitude_min":"92.00","grp_region":"","whitelist":"0","pc_credited":"62.2","comment":""},{"refno":"AS-002","name":"Bahrain Island","dxcc_num":"304","latitude_max":"26.35","latitude_min":"25.72","longitude_max":"50.85","longitude_min":"50.33","grp_region":"","whitelist":"0","pc_credited":"73.6","comment":""},{"refno":"AS-003","name":"Sri Lanka Island","dxcc_num":"315","latitude_max":"10.00","latitude_min":"5.83","longitude_max":"82.00","longitude_min":"79.50","grp_region":"","whitelist":"0","pc_credited":"74.5","comment":"Main island and coastal islands not qualifying for other groups"},{"refno":"AS-004","name":"Cyprus","dxcc_num":"215,283","latitude_max":"35.75","latitude_min":"34.50","longitude_max":"34.67","longitude_min":"32.23","grp_region":"","whitelist":"0","pc_credited":"88.7","comment":"Main island and coastal islands not qualifying for AS-120"},{"refno":"AS-005","name":"Kara Sea Coast West group","dxcc_num":"15","latitude_max":"74.75","latitude_min":"71.68","longitude_max":"82.00","longitude_min":"78.50","grp_region":"AI","whitelist":"0","pc_credited":"36.9","comment":""},{"refno":"AS-006","name":"Hong Kong group","dxcc_num":"321","latitude_max":"22.57","latitude_min":"22.12","longitude_max":"114.42","longitude_min":"113.82","grp_region":"","whitelist":"0","pc_credited":"56.4","comment":"Islands only- Much of Hong Kong is on the mainland- Submit a QSL only if it shows one of the island names above- -Hong Kong- alone is not sufficient-"},{"refno":"AS-007","name":"Honshu Island","dxcc_num":"339","latitude_max":"41.58","latitude_min":"33.40","longitude_max":"142.13","longitude_min":"130.83","grp_region":"","whitelist":"0","pc_credited":"86.3","comment":"Main Island and coastal islands not qualifying for other groups"},{"refno":"AS-008","name":"North Izu Islands","dxcc_num":"339","latitude_max":"34.87","latitude_min":"33.50","longitude_max":"139.75","longitude_min":"139.00","grp_region":"","whitelist":"0","pc_credited":"36.1","comment":"Not islands qualifying for AS-117"},{"refno":"AS-009","name":"Red Sea Coast group","dxcc_num":"492,2,382","latitude_max":"16.42","latitude_min":"12.72","longitude_max":"43.42","longitude_min":"41.75","grp_region":"","whitelist":"1","pc_credited":"9.5","comment":""},{"refno":"AS-010","name":"Zufar Region group","dxcc_num":"370","latitude_max":"17.93","latitude_min":"16.65","longitude_max":"56.33","longitude_min":"53.10","grp_region":"","whitelist":"1","pc_credited":"17.3","comment":""},{"refno":"AS-011","name":"Lakshadweep Islands-Laccadive Islands","dxcc_num":"142","latitude_max":"13.92","latitude_min":"9.92","longitude_max":"74.00","longitude_min":"71.58","grp_region":"","whitelist":"0","pc_credited":"61.1","comment":""},{"refno":"AS-012","name":"Kyushu-s Coastal Islands","dxcc_num":"339","latitude_max":"34.00","latitude_min":"30.90","longitude_max":"132.17","longitude_min":"129.22","grp_region":"","whitelist":"0","pc_credited":"52.5","comment":"Not islands qualifying for other groups"},{"refno":"AS-013","name":"Maldives","dxcc_num":"159","latitude_max":"-0.70","latitude_min":"7.25","longitude_max":"74.00","longitude_min":"72.50","grp_region":"","whitelist":"0","pc_credited":"75.3","comment":""},{"refno":"AS-014","name":"Ash Sharqiyah - Al Wusta Region group","dxcc_num":"370","latitude_max":"23.00","latitude_min":"17.93","longitude_max":"59.92","longitude_min":"56.33","grp_region":"","whitelist":"0","pc_credited":"35.7","comment":""},{"refno":"AS-015","name":"Pinang State group","dxcc_num":"299","latitude_max":"5.58","latitude_min":"5.12","longitude_max":"100.42","longitude_min":"100.12","grp_region":"","whitelist":"0","pc_credited":"75.6","comment":"Islands only- Part of Pinang State is on the mainland- Submit a QSL only if it shows one of these island names- -Pinang- or -Penang- alone is not sufficient-"},{"refno":"AS-016","name":"Gulf of Aden West group","dxcc_num":"492,243","latitude_max":"13.55","latitude_min":"12.58","longitude_max":"47.00","longitude_min":"43.33","grp_region":"","whitelist":"1","pc_credited":"0.4","comment":""},{"refno":"AS-017","name":"Okinawa Islands","dxcc_num":"339,193","latitude_max":"28.00","latitude_min":"26.00","longitude_max":"128.37","longitude_min":"126.58","grp_region":"","whitelist":"0","pc_credited":"54.5","comment":""},{"refno":"AS-018","name":"Sakhalin Island","dxcc_num":"15","latitude_max":"54.58","latitude_min":"45.83","longitude_max":"144.83","longitude_min":"141.50","grp_region":"","whitelist":"0","pc_credited":"73.3","comment":"Main island and coastal islands not qualifying for other groups"},{"refno":"AS-019","name":"Singapore","dxcc_num":"381","latitude_max":"1.48","latitude_min":"1.13","longitude_max":"104.08","longitude_min":"103.62","grp_region":"","whitelist":"0","pc_credited":"78.1","comment":""},{"refno":"AS-020","name":"Taiwan Island","dxcc_num":"386","latitude_max":"25.35","latitude_min":"21.83","longitude_max":"122.00","longitude_min":"120.00","grp_region":"","whitelist":"0","pc_credited":"80.7","comment":"Main island and coastal islands not qualifying for other groups"},{"refno":"AS-021","name":"Trucial Coast group","dxcc_num":"391","latitude_max":"26.08","latitude_min":"23.97","longitude_max":"56.08","longitude_min":"51.50","grp_region":"","whitelist":"0","pc_credited":"35.9","comment":"Not Abu Dhabi Island"},{"refno":"AS-022","name":"Medvezh-i Islands-Bear Islands","dxcc_num":"15","latitude_max":"71.00","latitude_min":"70.55","longitude_max":"162.75","longitude_min":"160.25","grp_region":"AI","whitelist":"0","pc_credited":"30.4","comment":""},{"refno":"AS-023","name":"Amami Islands","dxcc_num":"339","latitude_max":"28.58","latitude_min":"26.97","longitude_max":"130.10","longitude_min":"128.37","grp_region":"","whitelist":"0","pc_credited":"37.0","comment":""},{"refno":"AS-024","name":"Yaeyama Islands","dxcc_num":"339","latitude_max":"24.67","latitude_min":"24.00","longitude_max":"124.50","longitude_min":"122.83","grp_region":"","whitelist":"0","pc_credited":"45.3","comment":""},{"refno":"AS-025","name":"Kuril-skiye -Kuril- Islands South","dxcc_num":"15","latitude_max":"46.78","latitude_min":"43.58","longitude_max":"151.50","longitude_min":"145.33","grp_region":"","whitelist":"0","pc_credited":"38.9","comment":"Not Habomai Islands or Shikotan"},{"refno":"AS-026","name":"Cheju-do Province -Cheju Island- group","dxcc_num":"137","latitude_max":"33.75","latitude_min":"33.00","longitude_max":"127.00","longitude_min":"126.00","grp_region":"","whitelist":"0","pc_credited":"46.6","comment":""},{"refno":"AS-027","name":"Vrangelya -Wrangel- Island","dxcc_num":"15","latitude_max":"71.75","latitude_min":"70.67","longitude_max":"-175.25","longitude_min":"178.25","grp_region":"AI","whitelist":"1","pc_credited":"23.3","comment":"Include Geral-d and coastal islands"},{"refno":"AS-028","name":"Anzhu Islands","dxcc_num":"15","latitude_max":"76.42","latitude_min":"74.42","longitude_max":"151.17","longitude_min":"135.17","grp_region":"AI","whitelist":"1","pc_credited":"24.3","comment":""},{"refno":"AS-029","name":"Lyakhovskiye Islands","dxcc_num":"15","latitude_max":"74.42","latitude_min":"73.08","longitude_max":"143.83","longitude_min":"135.17","grp_region":"AI","whitelist":"1","pc_credited":"14.6","comment":""},{"refno":"AS-030","name":"Kazan -Volcano- Islands","dxcc_num":"192","latitude_max":"25.58","latitude_min":"24.13","longitude_max":"141.58","longitude_min":"141.17","grp_region":"","whitelist":"1","pc_credited":"26.3","comment":""},{"refno":"AS-031","name":"Chichi - Haha - Muko Islands-Bonin Islands-Ogasawara","dxcc_num":"192","latitude_max":"27.83","latitude_min":"26.42","longitude_max":"142.67","longitude_min":"140.83","grp_region":"","whitelist":"0","pc_credited":"68.2","comment":"QSLs mentioning only -Ogasawara Island-s-- usually count for this group"},{"refno":"AS-032","name":"Osumi Islands","dxcc_num":"339","latitude_max":"30.90","latitude_min":"30.17","longitude_max":"131.17","longitude_min":"129.83","grp_region":"","whitelist":"0","pc_credited":"43.5","comment":""},{"refno":"AS-033","name":"Nicobar Islands","dxcc_num":"11","latitude_max":"9.33","latitude_min":"6.58","longitude_max":"94.00","longitude_min":"92.50","grp_region":"","whitelist":"1","pc_credited":"26.9","comment":""},{"refno":"AS-036","name":"Iki - Tsushima Islands ","dxcc_num":"339","latitude_max":"34.75","latitude_min":"33.67","longitude_max":"130.17","longitude_min":"129.08","grp_region":"","whitelist":"0","pc_credited":"31.3","comment":""},{"refno":"AS-037","name":"Koshikijima Islands","dxcc_num":"339","latitude_max":"31.97","latitude_min":"31.53","longitude_max":"130.03","longitude_min":"129.58","grp_region":"","whitelist":"0","pc_credited":"37.5","comment":""},{"refno":"AS-038","name":"East Siberian Sea Coast group","dxcc_num":"15","latitude_max":"70.17","latitude_min":"68.77","longitude_max":"172.50","longitude_min":"162.50","grp_region":"AI","whitelist":"0","pc_credited":"34.6","comment":""},{"refno":"AS-039","name":"Komandorskiye -Commander- Islands","dxcc_num":"15","latitude_max":"55.58","latitude_min":"54.25","longitude_max":"168.50","longitude_min":"165.33","grp_region":"","whitelist":"1","pc_credited":"30.1","comment":""},{"refno":"AS-040","name":"Goto Islands","dxcc_num":"339","latitude_max":"33.38","latitude_min":"32.13","longitude_max":"129.22","longitude_min":"128.00","grp_region":"","whitelist":"0","pc_credited":"39.7","comment":"Not Hirado or Iki"},{"refno":"AS-041","name":"Oki Islands","dxcc_num":"339","latitude_max":"36.38","latitude_min":"35.95","longitude_max":"133.50","longitude_min":"132.83","grp_region":"","whitelist":"0","pc_credited":"42.2","comment":""},{"refno":"AS-042","name":"Severnaya Zemlya -North Land-","dxcc_num":"15","latitude_max":"81.50","latitude_min":"77.83","longitude_max":"108.00","longitude_min":"89.83","grp_region":"AI","whitelist":"0","pc_credited":"42.5","comment":"Sredniy Island in this group has been activated several times- Sredniy Island in AS-050 never"},{"refno":"AS-043","name":"South Izu Islands","dxcc_num":"339","latitude_max":"33.25","latitude_min":"29.67","longitude_max":"140.50","longitude_min":"139.58","grp_region":"","whitelist":"0","pc_credited":"31.7","comment":""},{"refno":"AS-044","name":"Sea of Okhotsk Coast Centre group","dxcc_num":"15","latitude_max":"56.00","latitude_min":"53.55","longitude_max":"139.00","longitude_min":"135.20","grp_region":"","whitelist":"0","pc_credited":"31.0","comment":""},{"refno":"AS-045","name":"Kyongsang-bukto Prov -Ullung Island- group","dxcc_num":"137","latitude_max":"37.58","latitude_min":"37.08","longitude_max":"131.95","longitude_min":"130.75","grp_region":"","whitelist":"0","pc_credited":"44.9","comment":""},{"refno":"AS-046","name":"Pahang - Johor State East group","dxcc_num":"299","latitude_max":"4.17","latitude_min":"1.33","longitude_max":"104.67","longitude_min":"103.33","grp_region":"","whitelist":"0","pc_credited":"36.2","comment":""},{"refno":"AS-047","name":"Daito Islands","dxcc_num":"339","latitude_max":"26.00","latitude_min":"24.42","longitude_max":"131.37","longitude_min":"131.12","grp_region":"","whitelist":"0","pc_credited":"42.1","comment":""},{"refno":"AS-048","name":"De Longa Islands","dxcc_num":"15","latitude_max":"77.08","latitude_min":"75.67","longitude_max":"158.33","longitude_min":"148.17","grp_region":"AI","whitelist":"1","pc_credited":"4.0","comment":""},{"refno":"AS-049","name":"Tokara Islands","dxcc_num":"339","latitude_max":"30.03","latitude_min":"28.72","longitude_max":"130.00","longitude_min":"128.83","grp_region":"","whitelist":"0","pc_credited":"33.1","comment":""},{"refno":"AS-050","name":"Sergeya Kirova Islands","dxcc_num":"15","latitude_max":"77.75","latitude_min":"76.83","longitude_max":"92.25","longitude_min":"88.25","grp_region":"AI","whitelist":"1","pc_credited":"6.5","comment":"Sredniy Island in AS-042 has been activated several times- Sredniy Island in this group never-"},{"refno":"AS-051","name":"Spratly Islands","dxcc_num":"247","latitude_max":"12.00","latitude_min":"6.00","longitude_max":"117.00","longitude_min":"111.00","grp_region":"","whitelist":"0","pc_credited":"63.7","comment":"These islands are subject to conflicting sovereignty claims and callsigns have varied in the past- QSLs for contacts after 1 January 2000 must bear a callsign issued by a national licensing authority for use on one of the Spratly Islands-"},{"refno":"AS-053","name":"Malay Peninsula West group","dxcc_num":"387","latitude_max":"9.97","latitude_min":"7.00","longitude_max":"99.67","longitude_min":"97.50","grp_region":"","whitelist":"0","pc_credited":"40.6","comment":""},{"refno":"AS-054","name":"Laptev Sea Coast West group","dxcc_num":"15","latitude_max":"77.83","latitude_min":"76.45","longitude_max":"109.00","longitude_min":"100.00","grp_region":"AI","whitelist":"1","pc_credited":"25.5","comment":""},{"refno":"AS-055","name":"Vize Island","dxcc_num":"15","latitude_max":"79.75","latitude_min":"79.33","longitude_max":"78.00","longitude_min":"75.50","grp_region":"AI","whitelist":"1","pc_credited":"12.1","comment":""},{"refno":"AS-056","name":"Danjo Islands","dxcc_num":"339","latitude_max":"32.13","latitude_min":"31.93","longitude_max":"128.53","longitude_min":"128.27","grp_region":"","whitelist":"1","pc_credited":"22.5","comment":""},{"refno":"AS-057","name":"Uyedineniya Island","dxcc_num":"15","latitude_max":"77.58","latitude_min":"77.42","longitude_max":"83.00","longitude_min":"82.00","grp_region":"AI","whitelist":"1","pc_credited":"20.3","comment":""},{"refno":"AS-058","name":"Perlis - Kedah State group","dxcc_num":"299","latitude_max":"6.50","latitude_min":"5.58","longitude_max":"100.35","longitude_min":"99.17","grp_region":"","whitelist":"0","pc_credited":"31.8","comment":""},{"refno":"AS-059","name":"Sea of Okhotsk Coast group","dxcc_num":"15","latitude_max":"59.80","latitude_min":"58.93","longitude_max":"154.00","longitude_min":"146.93","grp_region":"","whitelist":"0","pc_credited":"33.9","comment":""},{"refno":"AS-060","name":"Cholla-namdo Province group","dxcc_num":"137","latitude_max":"35.43","latitude_min":"33.92","longitude_max":"128.00","longitude_min":"125.42","grp_region":"","whitelist":"0","pc_credited":"43.3","comment":""},{"refno":"AS-061","name":"Ratmanova -Big Diomede- Island","dxcc_num":"15","latitude_max":"65.85","latitude_min":"65.72","longitude_max":"-169.17","longitude_min":"-169.00","grp_region":"AI","whitelist":"1","pc_credited":"29.4","comment":"Part of the Diomede Islands shared with Alaska"},{"refno":"AS-062","name":"Habomai Islands","dxcc_num":"15","latitude_max":"43.92","latitude_min":"43.33","longitude_max":"147.00","longitude_min":"145.85","grp_region":"","whitelist":"0","pc_credited":"37.2","comment":"Not Kunashir"},{"refno":"AS-063","name":"Laptev Sea Coast East group","dxcc_num":"15","latitude_max":"76.92","latitude_min":"72.73","longitude_max":"114.00","longitude_min":"105.33","grp_region":"AI","whitelist":"0","pc_credited":"30.4","comment":"Not islands qualifying for other groups"},{"refno":"AS-064","name":"Bering Sea Coast South group","dxcc_num":"15","latitude_max":"60.58","latitude_min":"57.33","longitude_max":"170.30","longitude_min":"162.00","grp_region":"","whitelist":"1","pc_credited":"28.2","comment":""},{"refno":"AS-065","name":"Chukchi Sea Coast East group","dxcc_num":"15","latitude_max":"68.13","latitude_min":"66.08","longitude_max":"-177.00","longitude_min":"-169.58","grp_region":"AI","whitelist":"1","pc_credited":"30.0","comment":""},{"refno":"AS-066","name":"Sea of Japan Coast group","dxcc_num":"15","latitude_max":"47.33","latitude_min":"42.25","longitude_max":"139.00","longitude_min":"130.67","grp_region":"","whitelist":"0","pc_credited":"44.7","comment":""},{"refno":"AS-067","name":"Uji - Kusagaki Islands","dxcc_num":"339","latitude_max":"31.33","latitude_min":"30.75","longitude_max":"129.58","longitude_min":"129.33","grp_region":"","whitelist":"1","pc_credited":"26.3","comment":""},{"refno":"AS-068","name":"Kara Sea Coast Centre group","dxcc_num":"15","latitude_max":"75.83","latitude_min":"73.62","longitude_max":"91.00","longitude_min":"82.00","grp_region":"AI","whitelist":"1","pc_credited":"24.9","comment":"Not islands qualifying for AS-086 or AS-087"},{"refno":"AS-069","name":"Iony Island","dxcc_num":"15","latitude_max":"56.48","latitude_min":"56.37","longitude_max":"143.47","longitude_min":"143.32","grp_region":"","whitelist":"1","pc_credited":"12.6","comment":""},{"refno":"AS-070","name":"East Siberian Sea Coast East group","dxcc_num":"15","latitude_max":"71.17","latitude_min":"69.33","longitude_max":"162.50","longitude_min":"152.50","grp_region":"AI","whitelist":"1","pc_credited":"27.9","comment":""},{"refno":"AS-071","name":"Bering Sea Coast North group","dxcc_num":"15","latitude_max":"66.08","latitude_min":"64.17","longitude_max":"-177.00","longitude_min":"-169.58","grp_region":"AI","whitelist":"1","pc_credited":"26.2","comment":""},{"refno":"AS-072","name":"Perak State group","dxcc_num":"299","latitude_max":"5.12","latitude_min":"3.83","longitude_max":"100.75","longitude_min":"100.33","grp_region":"","whitelist":"1","pc_credited":"30.0","comment":""},{"refno":"AS-073","name":"Kelantan - Terengganu State group","dxcc_num":"299","latitude_max":"6.23","latitude_min":"4.17","longitude_max":"103.75","longitude_min":"102.08","grp_region":"","whitelist":"0","pc_credited":"35.8","comment":""},{"refno":"AS-074","name":"Selangor - Negeri Sembilan State group","dxcc_num":"299","latitude_max":"3.83","latitude_min":"2.38","longitude_max":"101.97","longitude_min":"100.75","grp_region":"","whitelist":"0","pc_credited":"31.2","comment":""},{"refno":"AS-075","name":"Macau group","dxcc_num":"152","latitude_max":"22.27","latitude_min":"22.07","longitude_max":"113.67","longitude_min":"113.53","grp_region":"","whitelist":"0","pc_credited":"55.5","comment":"Islands only- Much of Macau is on the mainland- Submit a QSL only if it shows one of the island names above- -Macau- alone is not sufficient-"},{"refno":"AS-076","name":"Shikoku Island","dxcc_num":"339","latitude_max":"34.58","latitude_min":"32.66","longitude_max":"134.87","longitude_min":"132.00","grp_region":"","whitelist":"0","pc_credited":"72.9","comment":"Exclude other islands in the Seto Naikai and elsewhere which fall in the JA5 call area-"},{"refno":"AS-077","name":"Kyushu Island","dxcc_num":"339","latitude_max":"33.98","latitude_min":"30.95","longitude_max":"132.12","longitude_min":"129.55","grp_region":"","whitelist":"0","pc_credited":"69.6","comment":"Main island and coastal islands not qualifying for other groups"},{"refno":"AS-078","name":"Hokkaido Island","dxcc_num":"339","latitude_max":"45.58","latitude_min":"41.33","longitude_max":"145.85","longitude_min":"139.75","grp_region":"","whitelist":"0","pc_credited":"74.8","comment":"Main island and coastal islands not qualifying for other groups"},{"refno":"AS-079","name":"Miyako Islands","dxcc_num":"339","latitude_max":"25.00","latitude_min":"24.50","longitude_max":"125.58","longitude_min":"124.50","grp_region":"","whitelist":"0","pc_credited":"44.9","comment":""},{"refno":"AS-080","name":"Ch-ungch-ong-namdo Province group","dxcc_num":"137","latitude_max":"37.08","latitude_min":"35.98","longitude_max":"126.78","longitude_min":"125.50","grp_region":"","whitelist":"0","pc_credited":"36.6","comment":"Not Kaeya- Och-ong- Yon- or any islands outside HL3"},{"refno":"AS-081","name":"Kyongsang-bukto - Kyongsang-namdo Province group ","dxcc_num":"137","latitude_max":"37.15","latitude_min":"34.50","longitude_max":"129.67","longitude_min":"127.75","grp_region":"","whitelist":"0","pc_credited":"39.1","comment":"Not Yong -near Pusan-"},{"refno":"AS-082","name":"Laptev Sea Coast Centre group","dxcc_num":"15","latitude_max":"74.00","latitude_min":"70.72","longitude_max":"132.50","longitude_min":"121.50","grp_region":"AI","whitelist":"0","pc_credited":"31.0","comment":""},{"refno":"AS-083","name":"Kara Sea Coast East group","dxcc_num":"15","latitude_max":"73.67","latitude_min":"70.92","longitude_max":"78.50","longitude_min":"69.50","grp_region":"AI","whitelist":"0","pc_credited":"45.2","comment":"Vil-kitskogo is treated at times as being part of R0B for licensing-"},{"refno":"AS-084","name":"Cheju-do Province -Ch-uja Islands- group","dxcc_num":"137","latitude_max":"34.05","latitude_min":"33.88","longitude_max":"126.42","longitude_min":"126.25","grp_region":"","whitelist":"0","pc_credited":"31.6","comment":""},{"refno":"AS-085","name":"Cholla-namdo Province -Soan Islands- group","dxcc_num":"137","latitude_max":"34.25","latitude_min":"34.05","longitude_max":"126.95","longitude_min":"126.37","grp_region":"","whitelist":"0","pc_credited":"33.5","comment":""},{"refno":"AS-086","name":"Izvestiy TS-I-K Islands","dxcc_num":"15","latitude_max":"76.08","latitude_min":"75.67","longitude_max":"83.75","longitude_min":"81.25","grp_region":"AI","whitelist":"1","pc_credited":"21.9","comment":""},{"refno":"AS-087","name":"Arkticheskogo Instituta Islands","dxcc_num":"15","latitude_max":"75.67","latitude_min":"75.00","longitude_max":"82.75","longitude_min":"81.25","grp_region":"AI","whitelist":"1","pc_credited":"24.9","comment":""},{"refno":"AS-088","name":"Qatar group","dxcc_num":"376","latitude_max":"26.20","latitude_min":"24.63","longitude_max":"52.50","longitude_min":"50.70","grp_region":"","whitelist":"1","pc_credited":"29.1","comment":""},{"refno":"AS-089","name":"Kara Sea Coast West group","dxcc_num":"15","latitude_max":"73.00","latitude_min":"68.20","longitude_max":"69.50","longitude_min":"65.10","grp_region":"AI","whitelist":"0","pc_credited":"38.5","comment":""},{"refno":"AS-090","name":"Kyonggi-do Province -Tokchok Islands- group","dxcc_num":"137","latitude_max":"37.30","latitude_min":"36.90","longitude_max":"126.37","longitude_min":"125.75","grp_region":"","whitelist":"0","pc_credited":"31.1","comment":"Not Chawol"},{"refno":"AS-091","name":"Sea of Okhotsk Coast group","dxcc_num":"15","latitude_max":"59.00","latitude_min":"55.82","longitude_max":"159.66","longitude_min":"155.50","grp_region":"","whitelist":"1","pc_credited":"29.7","comment":""},{"refno":"AS-092","name":"Bering Sea Coast South group","dxcc_num":"15","latitude_max":"66.33","latitude_min":"61.82","longitude_max":"-177.00","longitude_min":"174.50","grp_region":"AI","whitelist":"1","pc_credited":"29.0","comment":""},{"refno":"AS-093","name":"Cholla-namdo Province -Huksan Islands- group","dxcc_num":"137","latitude_max":"34.83","latitude_min":"34.00","longitude_max":"125.58","longitude_min":"125.00","grp_region":"","whitelist":"0","pc_credited":"34.5","comment":""},{"refno":"AS-094","name":"Hainan Province -Hainan Island- group ","dxcc_num":"318","latitude_max":"20.20","latitude_min":"18.00","longitude_max":"111.50","longitude_min":"108.50","grp_region":"","whitelist":"1","pc_credited":"29.3","comment":""},{"refno":"AS-095","name":"Bering Sea Coast group","dxcc_num":"15","latitude_max":"57.33","latitude_min":"50.85","longitude_max":"163.67","longitude_min":"156.67","grp_region":"","whitelist":"1","pc_credited":"28.8","comment":"Not islands west of the peninsula"},{"refno":"AS-096","name":"Karnataka State group","dxcc_num":"324","latitude_max":"14.92","latitude_min":"12.70","longitude_max":"74.88","longitude_min":"74.02","grp_region":"","whitelist":"1","pc_credited":"25.5","comment":""},{"refno":"AS-097","name":"Melaka - Johor State West group ","dxcc_num":"299","latitude_max":"2.38","latitude_min":"1.25","longitude_max":"103.62","longitude_min":"101.97","grp_region":"","whitelist":"0","pc_credited":"36.6","comment":""},{"refno":"AS-098","name":"Aydin - Mugla Province group ","dxcc_num":"390","latitude_max":"37.88","latitude_min":"36.28","longitude_max":"29.30","longitude_min":"27.00","grp_region":"","whitelist":"0","pc_credited":"35.3","comment":""},{"refno":"AS-099","name":"Canakkale - Balikesir - Izmir Province group ","dxcc_num":"390","latitude_max":"40.02","latitude_min":"37.88","longitude_max":"27.25","longitude_min":"25.92","grp_region":"","whitelist":"0","pc_credited":"52.7","comment":"Not Alibey- Gokceada"},{"refno":"AS-100","name":"Israel group","dxcc_num":"336","latitude_max":"33.08","latitude_min":"31.58","longitude_max":"35.12","longitude_min":"34.48","grp_region":"","whitelist":"0","pc_credited":"37.8","comment":"Not Dor"},{"refno":"AS-101","name":"Malay Peninsula East group","dxcc_num":"387","latitude_max":"12.00","latitude_min":"9.00","longitude_max":"100.25","longitude_min":"99.13","grp_region":"","whitelist":"0","pc_credited":"34.8","comment":""},{"refno":"AS-102","name":"Kinmen -Quemoy- Island ","dxcc_num":"386","latitude_max":"24.52","latitude_min":"24.35","longitude_max":"118.60","longitude_min":"118.20","grp_region":"","whitelist":"0","pc_credited":"38.6","comment":""},{"refno":"AS-103","name":"P-enghu -Pescadores- Islands","dxcc_num":"386","latitude_max":"23.80","latitude_min":"23.13","longitude_max":"119.75","longitude_min":"119.25","grp_region":"","whitelist":"0","pc_credited":"44.2","comment":""},{"refno":"AS-104","name":"Kara Sea Coast East group ","dxcc_num":"15","latitude_max":"76.50","latitude_min":"75.63","longitude_max":"100.00","longitude_min":"91.00","grp_region":"AI","whitelist":"1","pc_credited":"27.4","comment":""},{"refno":"AS-105","name":"Kyonggi-do Province group","dxcc_num":"137","latitude_max":"37.83","latitude_min":"37.00","longitude_max":"126.80","longitude_min":"125.58","grp_region":"","whitelist":"0","pc_credited":"41.3","comment":"Not Tokchok Islands or Taenanji or other HL3 islands"},{"refno":"AS-106","name":"Minicoy Island","dxcc_num":"142","latitude_max":"8.37","latitude_min":"8.18","longitude_max":"73.12","longitude_min":"72.95","grp_region":"","whitelist":"0","pc_credited":"35.8","comment":""},{"refno":"AS-107","name":"Gulf of Thailand North group","dxcc_num":"387","latitude_max":"13.50","latitude_min":"12.00","longitude_max":"102.00","longitude_min":"99.95","grp_region":"","whitelist":"0","pc_credited":"30.4","comment":""},{"refno":"AS-108","name":"Lebanon group","dxcc_num":"354","latitude_max":"34.63","latitude_min":"33.08","longitude_max":"35.98","longitude_min":"35.12","grp_region":"","whitelist":"1","pc_credited":"26.7","comment":""},{"refno":"AS-109","name":"Obskaya Gulf group","dxcc_num":"15","latitude_max":"70.92","latitude_min":"66.23","longitude_max":"78.50","longitude_min":"69.13","grp_region":"AI","whitelist":"0","pc_credited":"39.0","comment":""},{"refno":"AS-110","name":"Tungsha -Pratas- Island","dxcc_num":"505","latitude_max":"20.83","latitude_min":"20.58","longitude_max":"116.92","longitude_min":"116.58","grp_region":"","whitelist":"0","pc_credited":"44.7","comment":""},{"refno":"AS-111","name":"The Gulf group","dxcc_num":"378","latitude_max":"28.57","latitude_min":"24.23","longitude_max":"51.58","longitude_min":"48.37","grp_region":"","whitelist":"1","pc_credited":"4.2","comment":"Not Tarut Island"},{"refno":"AS-112","name":"Al Batinah - Masqat Region group","dxcc_num":"370","latitude_max":"24.97","latitude_min":"23.00","longitude_max":"59.08","longitude_min":"56.37","grp_region":"","whitelist":"1","pc_credited":"25.6","comment":""},{"refno":"AS-113","name":"Matsu Islands","dxcc_num":"386","latitude_max":"26.42","latitude_min":"25.93","longitude_max":"120.63","longitude_min":"119.92","grp_region":"","whitelist":"0","pc_credited":"41.0","comment":""},{"refno":"AS-114","name":"Sea of Okhotsk Coast South group","dxcc_num":"15","latitude_max":"54.75","latitude_min":"47.33","longitude_max":"141.50","longitude_min":"139.00","grp_region":"","whitelist":"0","pc_credited":"32.2","comment":""},{"refno":"AS-115","name":"Antalya Province group","dxcc_num":"390","latitude_max":"36.85","latitude_min":"36.05","longitude_max":"32.58","longitude_min":"29.30","grp_region":"","whitelist":"0","pc_credited":"33.7","comment":""},{"refno":"AS-116","name":"Huang Yan Island -Scarborough Reef-","dxcc_num":"506","latitude_max":"15.17","latitude_min":"15.07","longitude_max":"117.92","longitude_min":"117.75","grp_region":"","whitelist":"0","pc_credited":"37.9","comment":""},{"refno":"AS-117","name":"Honshu-s Coastal Islands West","dxcc_num":"339","latitude_max":"37.90","latitude_min":"33.40","longitude_max":"137.64","longitude_min":"130.00","grp_region":"","whitelist":"0","pc_credited":"54.9","comment":"Not Mukai -in Hiroshima-- Hiko -in Yamaguchi-- Omi -in Yamaguchi- or islands in the Seto Naikai which fall in the JA5 call area -AS-076 and AS-200--"},{"refno":"AS-118","name":"Kuwait group","dxcc_num":"348","latitude_max":"30.02","latitude_min":"28.57","longitude_max":"48.83","longitude_min":"47.80","grp_region":"","whitelist":"0","pc_credited":"42.8","comment":""},{"refno":"AS-119","name":"Musandam Region group","dxcc_num":"370","latitude_max":"26.53","latitude_min":"25.62","longitude_max":"56.67","longitude_min":"56.08","grp_region":"","whitelist":"1","pc_credited":"17.1","comment":""},{"refno":"AS-120","name":"Cyprus-s Coastal Islands","dxcc_num":"215","latitude_max":"35.75","latitude_min":"34.50","longitude_max":"34.67","longitude_min":"32.23","grp_region":"","whitelist":"0","pc_credited":"39.1","comment":""},{"refno":"AS-121","name":"Nordenshel-da Archipelago","dxcc_num":"15","latitude_max":"77.33","latitude_min":"76.33","longitude_max":"98.75","longitude_min":"93.75","grp_region":"AI","whitelist":"1","pc_credited":"27.4","comment":"Not Nansena- Pravdy- Taymyr or other islands south of the Matisena Strait-"},{"refno":"AS-122","name":"Kyonggi-do Province West group","dxcc_num":"137","latitude_max":"38.00","latitude_min":"37.72","longitude_max":"124.83","longitude_min":"124.57","grp_region":"","whitelist":"0","pc_credited":"30.7","comment":""},{"refno":"AS-123","name":"Icel - Adana - Hatay Province group","dxcc_num":"390","latitude_max":"36.90","latitude_min":"35.92","longitude_max":"36.22","longitude_min":"32.58","grp_region":"","whitelist":"0","pc_credited":"33.7","comment":""},{"refno":"AS-124","name":"Gulf of Oman group","dxcc_num":"391","latitude_max":"25.62","latitude_min":"24.97","longitude_max":"56.42","longitude_min":"56.27","grp_region":"","whitelist":"1","pc_credited":"24.8","comment":"Note- Contacts with Sirat Al Khawr before 1 January 2011 count also for this group-"},{"refno":"AS-125","name":"Gulf of Thailand North East group","dxcc_num":"387","latitude_max":"12.50","latitude_min":"11.50","longitude_max":"102.92","longitude_min":"102.00","grp_region":"","whitelist":"0","pc_credited":"32.9","comment":""},{"refno":"AS-126","name":"Malay Peninsula South West group ","dxcc_num":"387","latitude_max":"7.00","latitude_min":"6.43","longitude_max":"100.10","longitude_min":"99.08","grp_region":"","whitelist":"0","pc_credited":"33.4","comment":""},{"refno":"AS-127","name":"Chittagong Region group","dxcc_num":"305","latitude_max":"22.67","latitude_min":"20.52","longitude_max":"92.42","longitude_min":"91.00","grp_region":"","whitelist":"1","pc_credited":"23.9","comment":"Not Maiskhal"},{"refno":"AS-128","name":"Gulf of Thailand group","dxcc_num":"293","latitude_max":"10.47","latitude_min":"8.25","longitude_max":"105.53","longitude_min":"103.33","grp_region":"","whitelist":"0","pc_credited":"39.2","comment":""},{"refno":"AS-129","name":"Guangdong Province East group","dxcc_num":"318","latitude_max":"23.70","latitude_min":"21.70","longitude_max":"117.18","longitude_min":"113.85","grp_region":"","whitelist":"1","pc_credited":"28.1","comment":"Include islands in the co-ordinates area under Guangdong administration-"},{"refno":"AS-130","name":"South China Sea Coast South group","dxcc_num":"293","latitude_max":"10.55","latitude_min":"8.42","longitude_max":"107.63","longitude_min":"105.53","grp_region":"","whitelist":"1","pc_credited":"23.4","comment":""},{"refno":"AS-131","name":"Guangdong Province West group ","dxcc_num":"318","latitude_max":"22.75","latitude_min":"20.20","longitude_max":"113.85","longitude_min":"109.58","grp_region":"","whitelist":"0","pc_credited":"30.6","comment":""},{"refno":"AS-132","name":"Gulf of Tongking North group","dxcc_num":"293","latitude_max":"21.50","latitude_min":"19.97","longitude_max":"108.00","longitude_min":"106.00","grp_region":"","whitelist":"0","pc_credited":"31.6","comment":""},{"refno":"AS-133","name":"Cambodia group","dxcc_num":"312","latitude_max":"11.58","latitude_min":"9.87","longitude_max":"104.45","longitude_min":"102.83","grp_region":"","whitelist":"0","pc_credited":"39.9","comment":"Many Cambodian island names start with -Koh- meaning -Island-- e-g- Koh Poah"},{"refno":"AS-134","name":"Hebei - Tianjin Province group","dxcc_num":"318","latitude_max":"39.98","latitude_min":"38.27","longitude_max":"119.83","longitude_min":"117.55","grp_region":"","whitelist":"1","pc_credited":"26.1","comment":""},{"refno":"AS-135","name":"Jiangsu Province group","dxcc_num":"318","latitude_max":"35.07","latitude_min":"31.67","longitude_max":"121.93","longitude_min":"119.18","grp_region":"","whitelist":"0","pc_credited":"35.0","comment":""},{"refno":"AS-136","name":"Shanghai Province group","dxcc_num":"318","latitude_max":"31.87","latitude_min":"30.72","longitude_max":"121.93","longitude_min":"121.32","grp_region":"","whitelist":"0","pc_credited":"35.0","comment":""},{"refno":"AS-137","name":"Zhejiang Province North group","dxcc_num":"318","latitude_max":"30.92","latitude_min":"29.00","longitude_max":"123.00","longitude_min":"120.33","grp_region":"","whitelist":"0","pc_credited":"35.1","comment":"Not islands qualifying for AS-136"},{"refno":"AS-138","name":"Fujian Province group","dxcc_num":"318","latitude_max":"27.13","latitude_min":"23.50","longitude_max":"120.75","longitude_min":"117.18","grp_region":"","whitelist":"0","pc_credited":"34.4","comment":""},{"refno":"AS-139","name":"Guangxi Autonomous Region group","dxcc_num":"318","latitude_max":"21.67","latitude_min":"20.20","longitude_max":"109.77","longitude_min":"108.00","grp_region":"","whitelist":"1","pc_credited":"29.2","comment":""},{"refno":"AS-140","name":"Khulna - Barisal Region group","dxcc_num":"305","latitude_max":"22.83","latitude_min":"21.58","longitude_max":"91.00","longitude_min":"89.12","grp_region":"","whitelist":"1","pc_credited":"26.2","comment":""},{"refno":"AS-141","name":"Zhejiang Province South group ","dxcc_num":"318","latitude_max":"29.00","latitude_min":"27.13","longitude_max":"122.33","longitude_min":"120.45","grp_region":"","whitelist":"0","pc_credited":"33.5","comment":"Not Dawu"},{"refno":"AS-142","name":"Sea of Okhotsk Coast group","dxcc_num":"15","latitude_max":"55.82","latitude_min":"50.85","longitude_max":"156.77","longitude_min":"155.42","grp_region":"","whitelist":"1","pc_credited":"28.0","comment":""},{"refno":"AS-143","name":"Hainan Province -Xisha Islands- group-Paracel Islands","dxcc_num":"318","latitude_max":"17.50","latitude_min":"15.00","longitude_max":"113.00","longitude_min":"111.00","grp_region":"","whitelist":"1","pc_credited":"29.2","comment":""},{"refno":"AS-144","name":"Tenasserim Region South group","dxcc_num":"309","latitude_max":"13.25","latitude_min":"9.50","longitude_max":"98.75","longitude_min":"97.33","grp_region":"","whitelist":"0","pc_credited":"30.3","comment":""},{"refno":"AS-145","name":"Malay Peninsula South East group","dxcc_num":"387","latitude_max":"9.00","latitude_min":"6.23","longitude_max":"102.08","longitude_min":"99.95","grp_region":"","whitelist":"0","pc_credited":"37.2","comment":""},{"refno":"AS-146","name":"Shandong Province North East group","dxcc_num":"318","latitude_max":"38.45","latitude_min":"37.00","longitude_max":"122.75","longitude_min":"120.00","grp_region":"","whitelist":"0","pc_credited":"40.7","comment":""},{"refno":"AS-147","name":"Hokkaido-s Coastal Islands","dxcc_num":"339","latitude_max":"45.58","latitude_min":"41.30","longitude_max":"145.85","longitude_min":"139.33","grp_region":"","whitelist":"0","pc_credited":"42.1","comment":""},{"refno":"AS-148","name":"Cholla-bukto Province group","dxcc_num":"137","latitude_max":"36.17","latitude_min":"35.43","longitude_max":"126.68","longitude_min":"125.92","grp_region":"","whitelist":"0","pc_credited":"36.5","comment":""},{"refno":"AS-149","name":"Sakhalin-s Coastal Islands","dxcc_num":"15","latitude_max":"54.67","latitude_min":"45.67","longitude_max":"145.00","longitude_min":"141.00","grp_region":"","whitelist":"1","pc_credited":"30.2","comment":""},{"refno":"AS-150","name":"Shandong Province South group ","dxcc_num":"318","latitude_max":"37.00","latitude_min":"35.07","longitude_max":"122.60","longitude_min":"119.30","grp_region":"","whitelist":"0","pc_credited":"37.8","comment":"Not Ping"},{"refno":"AS-151","name":"Liaoning Province West group","dxcc_num":"318","latitude_max":"40.92","latitude_min":"38.67","longitude_max":"122.27","longitude_min":"119.83","grp_region":"","whitelist":"1","pc_credited":"27.8","comment":"Not islands to the east of the Liaodong Peninsula - the dividing line at the toe of the peninsula is 121 10E-"},{"refno":"AS-152","name":"Laptev Sea Coast West group","dxcc_num":"15","latitude_max":"75.00","latitude_min":"72.93","longitude_max":"121.50","longitude_min":"111.00","grp_region":"AI","whitelist":"1","pc_credited":"26.1","comment":""},{"refno":"AS-153","name":"West Bengal State group","dxcc_num":"324","latitude_max":"22.08","latitude_min":"21.50","longitude_max":"89.12","longitude_min":"87.50","grp_region":"","whitelist":"1","pc_credited":"19.9","comment":""},{"refno":"AS-154","name":"Black Sea Coast East group","dxcc_num":"390","latitude_max":"42.13","latitude_min":"40.91","longitude_max":"41.53","longitude_min":"35.00","grp_region":"","whitelist":"0","pc_credited":"32.5","comment":""},{"refno":"AS-155","name":"Taiwan-s Coastal Islands","dxcc_num":"386","latitude_max":"25.92","latitude_min":"21.58","longitude_max":"122.25","longitude_min":"119.92","grp_region":"","whitelist":"0","pc_credited":"38.9","comment":""},{"refno":"AS-156","name":"Ushakova Island","dxcc_num":"15","latitude_max":"81.08","latitude_min":"80.75","longitude_max":"81.00","longitude_min":"78.50","grp_region":"AI","whitelist":"1","pc_credited":"22.0","comment":""},{"refno":"AS-157","name":"South China Sea Coast Centre group","dxcc_num":"293","latitude_max":"12.82","latitude_min":"9.92","longitude_max":"109.50","longitude_min":"107.63","grp_region":"","whitelist":"0","pc_credited":"33.6","comment":""},{"refno":"AS-158","name":"Liaoning Province East group","dxcc_num":"318","latitude_max":"39.83","latitude_min":"38.67","longitude_max":"124.17","longitude_min":"121.17","grp_region":"","whitelist":"0","pc_credited":"37.3","comment":"Not islands to the west of the Liaodong Peninsula"},{"refno":"AS-159","name":"Black Sea Coast West group","dxcc_num":"390","latitude_max":"42.13","latitude_min":"41.08","longitude_max":"35.00","longitude_min":"29.12","grp_region":"","whitelist":"0","pc_credited":"46.3","comment":""},{"refno":"AS-160","name":"Shandong Province North West group","dxcc_num":"318","latitude_max":"38.30","latitude_min":"37.15","longitude_max":"120.00","longitude_min":"117.83","grp_region":"","whitelist":"1","pc_credited":"29.7","comment":"Refer islands other than Fu Rong to IOTA HQ for decision"},{"refno":"AS-161","name":"Kerala State group","dxcc_num":"324","latitude_max":"12.70","latitude_min":"8.30","longitude_max":"77.12","longitude_min":"74.88","grp_region":"","whitelist":"1","pc_credited":"15.9","comment":""},{"refno":"AS-162","name":"South China Sea Coast North group ","dxcc_num":"293","latitude_max":"16.18","latitude_min":"12.82","longitude_max":"109.50","longitude_min":"108.17","grp_region":"","whitelist":"1","pc_credited":"23.4","comment":""},{"refno":"AS-163","name":"Laptev Sea Coast East group","dxcc_num":"15","latitude_max":"72.92","latitude_min":"71.22","longitude_max":"142.50","longitude_min":"132.50","grp_region":"AI","whitelist":"1","pc_credited":"18.3","comment":""},{"refno":"AS-164","name":"East Siberian Sea Coast West group","dxcc_num":"15","latitude_max":"72.75","latitude_min":"70.83","longitude_max":"152.50","longitude_min":"142.50","grp_region":"AI","whitelist":"1","pc_credited":"14.6","comment":""},{"refno":"AS-165","name":"Arakan Region group","dxcc_num":"309","latitude_max":"20.63","latitude_min":"17.47","longitude_max":"94.53","longitude_min":"92.42","grp_region":"","whitelist":"1","pc_credited":"14.2","comment":""},{"refno":"AS-166","name":"Hormozgan Province group","dxcc_num":"330","latitude_max":"27.32","latitude_min":"25.43","longitude_max":"59.20","longitude_min":"52.73","grp_region":"","whitelist":"0","pc_credited":"39.6","comment":""},{"refno":"AS-167","name":"Irrawaddy - Yangon - Pegu Region group","dxcc_num":"309","latitude_max":"17.47","latitude_min":"15.62","longitude_max":"96.90","longitude_min":"94.08","grp_region":"","whitelist":"1","pc_credited":"11.1","comment":""},{"refno":"AS-168","name":"Kangwon-do Province group","dxcc_num":"137","latitude_max":"38.60","latitude_min":"37.15","longitude_max":"129.37","longitude_min":"128.37","grp_region":"","whitelist":"1","pc_credited":"16.0","comment":""},{"refno":"AS-169","name":"Maharashtra State group","dxcc_num":"324","latitude_max":"20.12","latitude_min":"15.77","longitude_max":"73.67","longitude_min":"72.58","grp_region":"","whitelist":"1","pc_credited":"17.0","comment":"Not Janjira"},{"refno":"AS-170","name":"Shelikhova Bay group","dxcc_num":"15","latitude_max":"61.93","latitude_min":"59.03","longitude_max":"162.50","longitude_min":"154.00","grp_region":"","whitelist":"1","pc_credited":"24.9","comment":""},{"refno":"AS-171","name":"Sri Lanka-s Coastal Islands","dxcc_num":"315","latitude_max":"10.00","latitude_min":"5.83","longitude_max":"82.00","longitude_min":"79.50","grp_region":"","whitelist":"1","pc_credited":"25.6","comment":""},{"refno":"AS-172","name":"Sea of Okhotsk Coast North group","dxcc_num":"15","latitude_max":"59.50","latitude_min":"56.00","longitude_max":"146.93","longitude_min":"137.50","grp_region":"","whitelist":"1","pc_credited":"25.5","comment":""},{"refno":"AS-173","name":"Tamil Nadu State group","dxcc_num":"324","latitude_max":"13.50","latitude_min":"8.00","longitude_max":"80.42","longitude_min":"77.12","grp_region":"","whitelist":"1","pc_credited":"24.6","comment":""},{"refno":"AS-174","name":"Chukchi Sea Coast West group","dxcc_num":"15","latitude_max":"70.00","latitude_min":"69.45","longitude_max":"178.00","longitude_min":"172.50","grp_region":"AI","whitelist":"1","pc_credited":"27.4","comment":""},{"refno":"AS-175","name":"Gujarat State West group","dxcc_num":"324","latitude_max":"23.67","latitude_min":"20.77","longitude_max":"70.50","longitude_min":"68.17","grp_region":"","whitelist":"1","pc_credited":"24.2","comment":""},{"refno":"AS-176","name":"Gujarat State East group","dxcc_num":"324","latitude_max":"22.25","latitude_min":"20.45","longitude_max":"72.95","longitude_min":"70.50","grp_region":"","whitelist":"1","pc_credited":"22.9","comment":"Note- Not Diu"},{"refno":"AS-177","name":"Goa State group","dxcc_num":"324","latitude_max":"15.77","latitude_min":"14.92","longitude_max":"74.07","longitude_min":"73.67","grp_region":"","whitelist":"1","pc_credited":"20.7","comment":""},{"refno":"AS-178","name":"Andhra Pradesh State North group","dxcc_num":"324","latitude_max":"19.15","latitude_min":"16.25","longitude_max":"84.87","longitude_min":"81.28","grp_region":"","whitelist":"1","pc_credited":"0.0","comment":""},{"refno":"AS-179","name":"Orissa State group","dxcc_num":"324","latitude_max":"21.62","latitude_min":"19.15","longitude_max":"87.50","longitude_min":"84.87","grp_region":"","whitelist":"1","pc_credited":"7.4","comment":"Not Dowdeswell"},{"refno":"AS-180","name":"Balochistan Province group","dxcc_num":"372","latitude_max":"25.42","latitude_min":"24.83","longitude_max":"66.77","longitude_min":"61.58","grp_region":"","whitelist":"1","pc_credited":"0.0","comment":""},{"refno":"AS-181","name":"Sindh Province group","dxcc_num":"372","latitude_max":"24.83","latitude_min":"23.67","longitude_max":"68.17","longitude_min":"66.63","grp_region":"","whitelist":"1","pc_credited":"0.0","comment":"Include qualifying islands at the Mouths of the Indus"},{"refno":"AS-182","name":"Mon Region group","dxcc_num":"309","latitude_max":"17.30","latitude_min":"14.87","longitude_max":"97.78","longitude_min":"96.90","grp_region":"","whitelist":"1","pc_credited":"0.0","comment":""},{"refno":"AS-183","name":"Tenasserim Region North group","dxcc_num":"309","latitude_max":"14.87","latitude_min":"13.25","longitude_max":"98.47","longitude_min":"97.67","grp_region":"","whitelist":"1","pc_credited":"0.0","comment":""},{"refno":"AS-184","name":"Preparis Channel group","dxcc_num":"309","latitude_max":"15.00","latitude_min":"13.83","longitude_max":"93.83","longitude_min":"93.08","grp_region":"","whitelist":"1","pc_credited":"0.0","comment":""},{"refno":"AS-185","name":"Gulf of Tongking South group","dxcc_num":"293","latitude_max":"19.97","latitude_min":"16.18","longitude_max":"108.33","longitude_min":"105.63","grp_region":"","whitelist":"1","pc_credited":"28.6","comment":"Not Nghi Son"},{"refno":"AS-186","name":"Syria group","dxcc_num":"384","latitude_max":"35.92","latitude_min":"34.63","longitude_max":"35.98","longitude_min":"35.67","grp_region":"","whitelist":"1","pc_credited":"27.5","comment":"Not Ibrahim Farah- Martatross- Pigeon-"},{"refno":"AS-187","name":"Gulf of Aden East group","dxcc_num":"492","latitude_max":"16.65","latitude_min":"13.55","longitude_max":"53.10","longitude_min":"47.00","grp_region":"","whitelist":"1","pc_credited":"0.0","comment":""},{"refno":"AS-188","name":"Khuzestan Province group","dxcc_num":"330","latitude_max":"30.37","latitude_min":"29.88","longitude_max":"50.03","longitude_min":"48.58","grp_region":"","whitelist":"1","pc_credited":"0.0","comment":"Not Abadan"},{"refno":"AS-189","name":"Bushehr Province group","dxcc_num":"330","latitude_max":"30.20","latitude_min":"27.32","longitude_max":"52.73","longitude_min":"50.03","grp_region":"","whitelist":"1","pc_credited":"27.6","comment":""},{"refno":"AS-190","name":"Red Sea Coast North -Tabuk Province- group","dxcc_num":"378","latitude_max":"29.37","latitude_min":"24.50","longitude_max":"37.43","longitude_min":"34.42","grp_region":"","whitelist":"1","pc_credited":"28.6","comment":""},{"refno":"AS-191","name":"Red Sea Coast Centre -Al Madinah - Makkah Province- group","dxcc_num":"378","latitude_max":"24.50","latitude_min":"18.08","longitude_max":"41.55","longitude_min":"37.38","grp_region":"","whitelist":"1","pc_credited":"28.1","comment":""},{"refno":"AS-192","name":"Red Sea Coast South -Jizan Province- group","dxcc_num":"378","latitude_max":"18.08","latitude_min":"16.42","longitude_max":"42.72","longitude_min":"40.83","grp_region":"","whitelist":"1","pc_credited":"18.8","comment":"Not Farasan Islands"},{"refno":"AS-193","name":"Farasan Islands","dxcc_num":"378","latitude_max":"17.13","latitude_min":"16.52","longitude_max":"42.28","longitude_min":"41.25","grp_region":"","whitelist":"1","pc_credited":"19.3","comment":""},{"refno":"AS-194","name":"Senkaku Islands","dxcc_num":"339","latitude_max":"26.00","latitude_min":"25.67","longitude_max":"124.67","longitude_min":"123.42","grp_region":"","whitelist":"1","pc_credited":"0.0","comment":""},{"refno":"AS-195","name":"P-yongan-Bukto - P-yongan-Namdo Province group","dxcc_num":"344","latitude_max":"39.88","latitude_min":"38.72","longitude_max":"125.38","longitude_min":"124.17","grp_region":"","whitelist":"1","pc_credited":"0.0","comment":""},{"refno":"AS-196","name":"Nam-p-o-si - Hwanghae-Namdo Province group","dxcc_num":"344","latitude_max":"38.72","latitude_min":"37.63","longitude_max":"126.17","longitude_min":"124.60","grp_region":"","whitelist":"1","pc_credited":"0.0","comment":""},{"refno":"AS-197","name":"Hamgyong-Bukto - Hamgyong-Namdo Province group","dxcc_num":"344","latitude_max":"42.33","latitude_min":"39.28","longitude_max":"130.67","longitude_min":"127.48","grp_region":"","whitelist":"1","pc_credited":"0.0","comment":""},{"refno":"AS-198","name":"Kangwon-do Province group","dxcc_num":"344","latitude_max":"39.28","latitude_min":"38.60","longitude_max":"128.37","longitude_min":"127.37","grp_region":"","whitelist":"1","pc_credited":"0.0","comment":""},{"refno":"AS-199","name":"Andhra Pradesh State South group","dxcc_num":"324","latitude_max":"16.25","latitude_min":"13.50","longitude_max":"81.28","longitude_min":"80.07","grp_region":"","whitelist":"1","pc_credited":"20.0","comment":""},{"refno":"AS-200","name":"Shikoku-s Coastal Islands","dxcc_num":"339","latitude_max":"34.58","latitude_min":"32.66","longitude_max":"134.87","longitude_min":"132.00","grp_region":"","whitelist":"0","pc_credited":"38.8","comment":"Not Akaba- Futana- Ka- Kiri- Nakano- Oh -all in Kochi- or Kokatsu- Naga- Ooge- Shimada- Takega -all in Tokushima- --- all count for AS-076-"},{"refno":"AS-201","name":"Sea of Marmara Islands","dxcc_num":"390","latitude_max":"41.07","latitude_min":"40.30","longitude_max":"29.52","longitude_min":"26.17","grp_region":"","whitelist":"0","pc_credited":"36.6","comment":""},{"refno":"AS-202","name":"Hawar Islands","dxcc_num":"304","latitude_max":"25.78","latitude_min":"25.53","longitude_max":"50.85","longitude_min":"50.68","grp_region":"","whitelist":"0","pc_credited":"31.5","comment":""},{"refno":"AS-203","name":"Shelikhova Bay group","dxcc_num":"15","latitude_max":"62.68","latitude_min":"59.00","longitude_max":"165.08","longitude_min":"159.66","grp_region":"AI","whitelist":"1","pc_credited":"25.2","comment":""},{"refno":"AS-204","name":"Kuril-skiye -Kuril- Islands North","dxcc_num":"15","latitude_max":"51.00","latitude_min":"46.67","longitude_max":"156.63","longitude_min":"151.50","grp_region":"","whitelist":"1","pc_credited":"26.4","comment":""},{"refno":"AS-205","name":"Bering Sea Coast North group","dxcc_num":"15","latitude_max":"61.82","latitude_min":"59.90","longitude_max":"174.50","longitude_min":"170.30","grp_region":"AI","whitelist":"1","pc_credited":"22.7","comment":""},{"refno":"AS-206","name":"Honshu-s Coastal Islands East","dxcc_num":"339","latitude_max":"41.59","latitude_min":"33.72","longitude_max":"142.25","longitude_min":"136.00","grp_region":"","whitelist":"0","pc_credited":"31.9","comment":""},{"refno":"AS-207","name":"Chukchi Sea Coast Centre group","dxcc_num":"15","latitude_max":"69.45","latitude_min":"68.14","longitude_max":"-177.00","longitude_min":"178.00","grp_region":"AI","whitelist":"1","pc_credited":"22.8","comment":""},{"refno":"EU-001","name":"Dodecanese","dxcc_num":"45","latitude_max":"37.50","latitude_min":"35.28","longitude_max":"29.60","longitude_min":"26.10","grp_region":"","whitelist":"0","pc_credited":"84.3","comment":"Not islands qualifying for other groups"},{"refno":"EU-002","name":"Aland Islands","dxcc_num":"5","latitude_max":"60.53","latitude_min":"59.75","longitude_max":"21.33","longitude_min":"19.42","grp_region":"","whitelist":"0","pc_credited":"88.5","comment":""},{"refno":"EU-003","name":"Eastern Azores group","dxcc_num":"149","latitude_max":"38.00","latitude_min":"36.83","longitude_max":"-26.50","longitude_min":"-24.50","grp_region":"","whitelist":"0","pc_credited":"77.7","comment":""},{"refno":"EU-004","name":"Balearic Islands","dxcc_num":"21","latitude_max":"40.17","latitude_min":"38.50","longitude_max":"4.50","longitude_min":"1.00","grp_region":"","whitelist":"0","pc_credited":"88.7","comment":""},{"refno":"EU-005","name":"Great Britain","dxcc_num":"223,294,279","latitude_max":"58.67","latitude_min":"49.83","longitude_max":"1.83","longitude_min":"-6.25","grp_region":"BI","whitelist":"0","pc_credited":"87.7","comment":"For each country include other islands not qualifying for other UK groups-"},{"refno":"EU-006","name":"Aran Islands","dxcc_num":"245","latitude_max":"53.18","latitude_min":"53.03","longitude_max":"-9.92","longitude_min":"-9.47","grp_region":"BI","whitelist":"0","pc_credited":"55.4","comment":""},{"refno":"EU-007","name":"Blasket Islands","dxcc_num":"245","latitude_max":"52.15","latitude_min":"52.02","longitude_max":"-10.68","longitude_min":"-10.47","grp_region":"BI","whitelist":"0","pc_credited":"50.1","comment":""},{"refno":"EU-008","name":"Inner Hebrides","dxcc_num":"279","latitude_max":"57.78","latitude_min":"55.55","longitude_max":"-7.00","longitude_min":"-5.42","grp_region":"BI","whitelist":"0","pc_credited":"69.3","comment":"Not Easdale- Luing- Seil- Torsa or islands qualifying for other groups"},{"refno":"EU-009","name":"Orkney","dxcc_num":"279,223","latitude_max":"59.47","latitude_min":"58.67","longitude_max":"-4.58","longitude_min":"-2.25","grp_region":"BI","whitelist":"0","pc_credited":"77.9","comment":"Not Stroma"},{"refno":"EU-010","name":"Outer Hebrides-Western Isles","dxcc_num":"279","latitude_max":"59.17","latitude_min":"56.75","longitude_max":"-7.73","longitude_min":"-5.73","grp_region":"BI","whitelist":"0","pc_credited":"69.3","comment":"Not islands qualifying for other groups"},{"refno":"EU-011","name":"Isles of Scilly","dxcc_num":"223","latitude_max":"50.07","latitude_min":"49.83","longitude_max":"-6.50","longitude_min":"-6.08","grp_region":"BI","whitelist":"0","pc_credited":"55.3","comment":""},{"refno":"EU-012","name":"Shetland","dxcc_num":"279","latitude_max":"61.00","latitude_min":"59.47","longitude_max":"-2.25","longitude_min":"-0.50","grp_region":"BI","whitelist":"0","pc_credited":"66.3","comment":""},{"refno":"EU-013","name":"Jersey","dxcc_num":"122","latitude_max":"49.33","latitude_min":"49.13","longitude_max":"-2.33","longitude_min":"-1.83","grp_region":"BI","whitelist":"0","pc_credited":"84.5","comment":"Not Les Minquiers Islands"},{"refno":"EU-014","name":"Corsica Island","dxcc_num":"214","latitude_max":"43.05","latitude_min":"41.32","longitude_max":"9.67","longitude_min":"8.42","grp_region":"","whitelist":"0","pc_credited":"85.0","comment":"Main island and coastal islands not qualifying for other Corsican groups"},{"refno":"EU-015","name":"Crete Island","dxcc_num":"40","latitude_max":"35.72","latitude_min":"34.88","longitude_max":"26.37","longitude_min":"23.47","grp_region":"","whitelist":"0","pc_credited":"86.2","comment":"Main island and coastal islands not qualifying for other Crete groups"},{"refno":"EU-016","name":"Dalmatia South group","dxcc_num":"497","latitude_max":"43.58","latitude_min":"42.38","longitude_max":"18.55","longitude_min":"15.42","grp_region":"","whitelist":"0","pc_credited":"68.1","comment":"Not Ciovo- Jaz- Lukvenjak- Merara- Olipa- Supetar- Veli Skolj- or Tajan or other islands in Malo More at southern end of Neretvanski Kanal- A full listing of Croatian IOTA counters is provided in the Islands Of Croatia Award -IOCA- List available from the IOCA website at http---www-inet-hr-9a6aa-IOTA-list-htm "},{"refno":"EU-017","name":"Eolie Islands-Lipari Islands","dxcc_num":"248","latitude_max":"38.87","latitude_min":"38.33","longitude_max":"15.33","longitude_min":"14.25","grp_region":"","whitelist":"0","pc_credited":"55.8","comment":""},{"refno":"EU-018","name":"Faroe Islands","dxcc_num":"222","latitude_max":"62.50","latitude_min":"61.33","longitude_max":"-8.00","longitude_min":"-6.00","grp_region":"","whitelist":"0","pc_credited":"82.6","comment":""},{"refno":"EU-019","name":"Franz Josef Land","dxcc_num":"61","latitude_max":"81.92","latitude_min":"79.67","longitude_max":"65.50","longitude_min":"44.00","grp_region":"AI","whitelist":"0","pc_credited":"65.4","comment":"Franz Josef Land -Zemlya Frantsa Iosifa-"},{"refno":"EU-020","name":"Gotland County -Gotland Island- group","dxcc_num":"284","latitude_max":"58.50","latitude_min":"56.83","longitude_max":"19.50","longitude_min":"17.83","grp_region":"","whitelist":"0","pc_credited":"66.8","comment":""},{"refno":"EU-021","name":"Iceland","dxcc_num":"242","latitude_max":"66.67","latitude_min":"63.25","longitude_max":"-24.67","longitude_min":"-13.33","grp_region":"AI","whitelist":"0","pc_credited":"85.9","comment":"Main island and coastal islands not qualifying for other Icelandic groups"},{"refno":"EU-022","name":"Jan Mayen Island","dxcc_num":"118","latitude_max":"71.25","latitude_min":"70.75","longitude_max":"-9.25","longitude_min":"-7.75","grp_region":"AI","whitelist":"0","pc_credited":"65.3","comment":""},{"refno":"EU-023","name":"Malta","dxcc_num":"257","latitude_max":"36.17","latitude_min":"35.75","longitude_max":"14.67","longitude_min":"14.17","grp_region":"","whitelist":"0","pc_credited":"85.3","comment":""},{"refno":"EU-024","name":"Sardinia Island","dxcc_num":"225","latitude_max":"41.27","latitude_min":"38.83","longitude_max":"9.88","longitude_min":"8.08","grp_region":"","whitelist":"0","pc_credited":"85.5","comment":"Main island including Sant- Antioco and other islands not qualifying for EU-165 or EU-041"},{"refno":"EU-025","name":"Sicily Island","dxcc_num":"248","latitude_max":"38.33","latitude_min":"36.62","longitude_max":"15.65","longitude_min":"12.42","grp_region":"","whitelist":"0","pc_credited":"85.4","comment":"Main island and coastal islands not qualifying for another Sicilian group or for AF-018 or AF-019"},{"refno":"EU-026","name":"Spitsbergen Island-Svalbard Island","dxcc_num":"259","latitude_max":"80.08","latitude_min":"76.50","longitude_max":"21.75","longitude_min":"10.50","grp_region":"AI","whitelist":"0","pc_credited":"80.7","comment":"Main island and coastal islands not qualifying for EU-063"},{"refno":"EU-027","name":"Bear Island-Bjornoya","dxcc_num":"259","latitude_max":"74.58","latitude_min":"74.25","longitude_max":"19.42","longitude_min":"18.75","grp_region":"AI","whitelist":"0","pc_credited":"52.6","comment":""},{"refno":"EU-028","name":"Toscana -Tuscany- Region group","dxcc_num":"248","latitude_max":"44.02","latitude_min":"42.20","longitude_max":"11.45","longitude_min":"9.75","grp_region":"","whitelist":"0","pc_credited":"61.9","comment":"Not Meloria"},{"refno":"EU-029","name":"Sjaelland Archipelago","dxcc_num":"221","latitude_max":"56.25","latitude_min":"54.55","longitude_max":"12.83","longitude_min":"10.87","grp_region":"","whitelist":"0","pc_credited":"80.6","comment":"Not Langeland"},{"refno":"EU-030","name":"Bornholm Island","dxcc_num":"221","latitude_max":"55.37","latitude_min":"54.92","longitude_max":"15.33","longitude_min":"14.58","grp_region":"","whitelist":"0","pc_credited":"62.8","comment":""},{"refno":"EU-031","name":"Campania Region group","dxcc_num":"248","latitude_max":"41.22","latitude_min":"39.98","longitude_max":"15.65","longitude_min":"13.77","grp_region":"","whitelist":"0","pc_credited":"71.1","comment":"Not Nisida"},{"refno":"EU-032","name":"Poitou-Charentes Region group","dxcc_num":"227","latitude_max":"46.27","latitude_min":"45.62","longitude_max":"-1.67","longitude_min":"-1.08","grp_region":"","whitelist":"0","pc_credited":"59.2","comment":"Not Madame"},{"refno":"EU-033","name":"Vesteralen Islands - Troms County South group","dxcc_num":"266","latitude_max":"69.42","latitude_min":"68.25","longitude_max":"16.77","longitude_min":"14.17","grp_region":"AI","whitelist":"0","pc_credited":"46.6","comment":""},{"refno":"EU-034","name":"Hiiumaa - Saaremaa - Laanemaa County group","dxcc_num":"52","latitude_max":"59.33","latitude_min":"57.87","longitude_max":"23.62","longitude_min":"21.67","grp_region":"","whitelist":"0","pc_credited":"60.8","comment":""},{"refno":"EU-035","name":"Novaya Zemlya","dxcc_num":"54","latitude_max":"77.17","latitude_min":"70.47","longitude_max":"69.25","longitude_min":"51.25","grp_region":"AI","whitelist":"0","pc_credited":"37.4","comment":"Arkhangel-skaya Oblast- Include all coastal islands"},{"refno":"EU-036","name":"Trondelag County South - More og Romsdal County North group","dxcc_num":"266","latitude_max":"64.47","latitude_min":"62.92","longitude_max":"10.50","longitude_min":"6.83","grp_region":"","whitelist":"0","pc_credited":"56.1","comment":"Not Ytteroy"},{"refno":"EU-037","name":"Kalmar County group","dxcc_num":"284","latitude_max":"58.00","latitude_min":"56.17","longitude_max":"17.22","longitude_min":"16.07","grp_region":"","whitelist":"0","pc_credited":"54.1","comment":"Not Bjorno- Granso- Langaskar- Lovo- Molleskar- Navelso- Okkno- Skaggenas- Stora Asko"},{"refno":"EU-038","name":"Noord Holland - Friesland - Groningen Province group","dxcc_num":"263","latitude_max":"53.57","latitude_min":"52.33","longitude_max":"7.00","longitude_min":"4.50","grp_region":"","whitelist":"0","pc_credited":"60.3","comment":""},{"refno":"EU-039","name":"Chausey Islands","dxcc_num":"227","latitude_max":"48.92","latitude_min":"48.85","longitude_max":"-1.88","longitude_min":"-1.70","grp_region":"","whitelist":"0","pc_credited":"48.2","comment":""},{"refno":"EU-040","name":"Estremadura Province group","dxcc_num":"272","latitude_max":"39.87","latitude_min":"38.38","longitude_max":"-9.58","longitude_min":"-8.92","grp_region":"","whitelist":"0","pc_credited":"49.4","comment":"Not Baleal- Fora"},{"refno":"EU-041","name":"Maddalena Archipelago","dxcc_num":"225","latitude_max":"41.32","latitude_min":"41.15","longitude_max":"9.53","longitude_min":"9.30","grp_region":"","whitelist":"0","pc_credited":"54.0","comment":""},{"refno":"EU-042","name":"Schleswig-Holstein State North West group","dxcc_num":"230","latitude_max":"55.07","latitude_min":"54.33","longitude_max":"9.00","longitude_min":"8.25","grp_region":"","whitelist":"0","pc_credited":"61.4","comment":"Not Hamburger Hallig- Nordstrand"},{"refno":"EU-043","name":"Goteborg och Bohus - Halland County group","dxcc_num":"284","latitude_max":"59.08","latitude_min":"56.45","longitude_max":"12.93","longitude_min":"10.92","grp_region":"","whitelist":"0","pc_credited":"55.7","comment":"Not Brato- Salto- Skafto -aka Skaftolandet-- Smogen- Tryggo- Valon-"},{"refno":"EU-044","name":"Troms og Finnmark County Centre group","dxcc_num":"266","latitude_max":"71.25","latitude_min":"69.98","longitude_max":"26.67","longitude_min":"21.00","grp_region":"AI","whitelist":"0","pc_credited":"40.0","comment":""},{"refno":"EU-045","name":"Lazio Region group","dxcc_num":"248","latitude_max":"42.37","latitude_min":"40.75","longitude_max":"13.77","longitude_min":"11.45","grp_region":"","whitelist":"0","pc_credited":"56.8","comment":""},{"refno":"EU-046","name":"Troms og Finnmark County West group","dxcc_num":"266","latitude_max":"70.38","latitude_min":"68.67","longitude_max":"21.88","longitude_min":"16.75","grp_region":"AI","whitelist":"0","pc_credited":"43.5","comment":""},{"refno":"EU-047","name":"Niedersachsen State group","dxcc_num":"230,81","latitude_max":"53.90","latitude_min":"53.33","longitude_max":"9.00","longitude_min":"6.63","grp_region":"","whitelist":"0","pc_credited":"56.1","comment":""},{"refno":"EU-048","name":"Bretagne -Morbihan- Region group","dxcc_num":"227","latitude_max":"47.75","latitude_min":"47.25","longitude_max":"-3.53","longitude_min":"-2.48","grp_region":"","whitelist":"0","pc_credited":"59.8","comment":"Not Calebasse- Dumet- or islands in Golfe du Morbihan-"},{"refno":"EU-049","name":"North Aegean Islands -Voreio Aigaio-","dxcc_num":"236","latitude_max":"40.07","latitude_min":"37.50","longitude_max":"27.13","longitude_min":"24.92","grp_region":"","whitelist":"0","pc_credited":"62.2","comment":"Not Andros or Tinos or other EU-067 counters"},{"refno":"EU-050","name":"Puglia -Foggia- Region group","dxcc_num":"248","latitude_max":"42.25","latitude_min":"41.37","longitude_max":"16.22","longitude_min":"15.13","grp_region":"","whitelist":"0","pc_credited":"48.9","comment":""},{"refno":"EU-051","name":"Ustica Island","dxcc_num":"248","latitude_max":"38.75","latitude_min":"38.67","longitude_max":"13.27","longitude_min":"13.12","grp_region":"","whitelist":"0","pc_credited":"51.1","comment":""},{"refno":"EU-052","name":"Ipeiros - Dytiki Ellas Region group","dxcc_num":"236","latitude_max":"39.95","latitude_min":"37.20","longitude_max":"21.75","longitude_min":"19.33","grp_region":"","whitelist":"0","pc_credited":"67.7","comment":"Not Lefkada -aka Levkas-- Petalas-"},{"refno":"EU-053","name":"Market Reef","dxcc_num":"167","latitude_max":"60.32","latitude_min":"60.28","longitude_max":"19.15","longitude_min":"19.12","grp_region":"","whitelist":"0","pc_credited":"80.3","comment":""},{"refno":"EU-054","name":"Egadi Islands","dxcc_num":"248","latitude_max":"38.07","latitude_min":"37.90","longitude_max":"12.43","longitude_min":"12.00","grp_region":"","whitelist":"0","pc_credited":"63.5","comment":"Not Grande in Stagnone Islands"},{"refno":"EU-055","name":"Vestland - Rogaland County group","dxcc_num":"266","latitude_max":"62.23","latitude_min":"58.27","longitude_max":"6.38","longitude_min":"4.42","grp_region":"","whitelist":"0","pc_credited":"55.7","comment":"Not Eigeroya- Karmoy- Osteroy- Radoy- Randoy- Selo- Tysnesoy-"},{"refno":"EU-056","name":"More og Romsdal County Centre group","dxcc_num":"266","latitude_max":"63.01","latitude_min":"62.38","longitude_max":"7.50","longitude_min":"5.83","grp_region":"","whitelist":"0","pc_credited":"46.7","comment":"Note- Contacts with Sula before 16 February 2013 count also for this group- Not islands south of the Sulafjorden-"},{"refno":"EU-057","name":"Mecklenburg-Vorpommern State group","dxcc_num":"230","latitude_max":"54.72","latitude_min":"53.93","longitude_max":"13.95","longitude_min":"10.92","grp_region":"","whitelist":"0","pc_credited":"67.1","comment":"Not Daenholm- Fehmarn- Koos- Poel- Warder-"},{"refno":"EU-058","name":"Provence-Cote d-Azur -Alpes Maritimes- Region group","dxcc_num":"227","latitude_max":"43.78","latitude_min":"43.48","longitude_max":"7.53","longitude_min":"6.93","grp_region":"","whitelist":"0","pc_credited":"37.7","comment":""},{"refno":"EU-059","name":"St Kilda","dxcc_num":"279","latitude_max":"57.90","latitude_min":"57.77","longitude_max":"-8.68","longitude_min":"-8.45","grp_region":"BI","whitelist":"0","pc_credited":"38.7","comment":""},{"refno":"EU-060","name":"Sterea Ellas Region group","dxcc_num":"236","latitude_max":"39.07","latitude_min":"37.92","longitude_max":"24.68","longitude_min":"22.70","grp_region":"","whitelist":"0","pc_credited":"44.0","comment":"Not Evvoia -aka Euboea- or islands qualifying for other groups"},{"refno":"EU-061","name":"Agder - Vestfold og Telemark - Viken County group","dxcc_num":"266","latitude_max":"59.54","latitude_min":"57.93","longitude_max":"11.20","longitude_min":"6.38","grp_region":"","whitelist":"0","pc_credited":"54.7","comment":"Not Hisoy- Notteroy- Skjernoy"},